ID,건물명,주소,판매 유형,건물 유형,보증금,월 납입 비용,관리비,면적(단위:평),주변 지하철역,준공일자,판매등록일자,lat,long
40062485,미등록 건물명,연제구 연산동 1310-23,전세,원룸,4500,0,8,6.4,"['시청역', '연산역', '물만골역']",2001.12.28,2024-07-27,35.1818429075318,129.079712609192
40062493,미등록 건물명,천안시 서북구 성정동 1279,월세,원룸,500,35,6,7.0,['두정역'],20121030,2024-03-12,36.8294236150957,127.138462628829
40062495,미등록 건물명,창원시 의창구 사림동 149-18,월세,원룸,100,22,1,5.0,없음,20010728,2024-03-06,35.2470169872929,128.684132105544
40062496,미등록 건물명,성북구 보문동2가 74-11,월세,원룸,2000,44,8,4.0,"['보문역', '창신역', '성신여대입구역']",20120312,2024-03-11,37.5854865875137,127.018136522855
40062497,미등록 건물명,경상남도 거제시 장평동,월세,원룸,200,33,5,13.0,없음,2008년 8월 25일,2024-03-16,34.8874773926731,128.60647022955
40062498,미등록 건물명,미추홀구 주안동 412-16,월세,원룸,30,32,10,5.4,"['시민공원(문화창작지대)역', '석바위시장역', '주안역']",2020년 10월 27일,2024-03-05,37.4557094837843,126.68426100785
40062505,미등록 건물명,오산시 궐동 620-7,월세,빌라,500,65,8,15.0,['오산대역'],2007.12.03,2024-03-10,37.1606530527908,127.056511717703
40062507,미등록 건물명,북구 구포동 947-8,월세,원룸,100,25,10,7.5,"['구명역', '구남역', '구포역']",2010.12.07,2024-03-06,35.1993608684753,128.99793153167
40062517,미등록 건물명,양천구 목동 543-5,매매,빌라,4,17.3,"['염창역', '신목동역', '등촌역']",20160108,2024-04-01,37.5438327966516,126.873618124815
40062519,미등록 건물명,아산시 배방읍 1631,월세,빌라,5000,35,15,15.0,없음,2019.07.31,2024-03-19,36.77204511424921,127.07821974342856
40062520,미등록 건물명,남동구 간석동 267-13,월세,원룸,50,60,10,9.2,"['간석오거리역', '동암역', '간석역']",2023년 6월 5일,2024-03-05,37.4660995705909,126.702999165154
40062523,미등록 건물명,천안시 서북구 성정동 912-1,월세,원룸,200,28,7,10.0,없음,20050718,2024-03-19,36.82023136174557,127.1328972530524
40062524,미등록 건물명,구미시 산동읍 383-3,월세,원룸,300,31,9,13.0,없음,20120314,2024-08-16,36.1392386238244,128.44024136729
40062548,운현,강남구 논현동 205-8,월세,오피스텔,1000,80,8,9.1,"['언주역', '신논현역', '역삼역']",20030410,2024-03-09,37.506473541259766,127.03015899658205
40062549,미등록 건물명,강서구 화곡동 421-19,전세,원룸,13000,0,8,6.0,"['까치산역', '화곡역']",20221117,2024-04-26,37.5322456706786,126.840027375101
40062551,미등록 건물명,달서구 호산동 275,월세,원룸,200,35,10,9.0,"['강창역', '대실역', '계명대역']",20151023,2024-03-19,35.8554657175655,128.47677237564
40062568,미등록 건물명,천안시 서북구 두정동 1223,월세,원룸,200,33,8,10.0,['두정역'],2008.5.28.,2024-03-07,36.834398188621,127.139224696034
40062569,이지마루오장,중구 오장동 206-34,월세,오피스텔,5000,110,13,12.0,"['을지로4가역', '동대문역사문화공원역', '동대입구역']",20181204,2024-03-06,37.56440964487026,127.00196492485456
40062573,미등록 건물명,강북구 미아동 791-181,월세,원룸,1000,60,0,9.7,"['삼양역', '화계역', '미아역']",2002.08.27.,2024-03-16,37.6286830717291,127.019437209273
40062574,용산푸르지오써밋,용산구 한강로2가 420,월세,오피스텔,2000,170,20,10.5,"['용산역', '신용산역', '이촌역']",20170801,2024-07-08,37.5274068,126.965359
40062575,미등록 건물명,중구 운남동 1521-2,월세,원룸,300,38,5,6.0,없음,20170125,2024-03-15,37.4916015151061,126.534011201151
40062576,미등록 건물명,청주시 청원구 오창읍 402-1,월세,원룸,200,21,9,8.4,없음,20130417,2024-03-09,36.7105041850732,127.412328239214
40062578,미등록 건물명,문경시 모전동 1320,전세,원룸,6000,0,5,12.0,없음,"2016,6,28",2024-03-06,36.5843021754121,128.191788155587
40062581,동건,은평구 응암동 599-1,전세,오피스텔,19000,0,7,5.4,"['새절역', '증산역', '응암역']",2022.4.14,2024-03-05,37.5892556281908,126.915918792538
40062583,미등록 건물명,도봉구 쌍문동 88-138,월세,원룸,500,42,5,6.0,"['쌍문역', '창동역']",2010-09-30,2024-03-12,37.6507041832582,127.0351677118
40062589,미등록 건물명,관악구 신림동 546-13,전세,원룸,13000,0,9,8.0,"['신대방역', '구로디지털단지역']",20181114,2024-03-08,37.4826525567811,126.909638779897
40062594,미등록 건물명,전라북도 익산시 모현동1가,월세,원룸,300,40,5,10.0,없음,2020.07.09,2024-03-22,35.9491791194356,126.945777894766
40062599,미등록 건물명,전라북도 전주시 완산구 효자동3가,월세,빌라,200,30,9,14.0,없음,2009.08.06,2024-03-15,35.81993670640398,127.10082305163596
40062601,미등록 건물명,성북구 보문동6가 61,월세,빌라,3500,96,1,13.5,"['창신역', '보문역', '신설동역']",1994-12-09 ,2024-03-09,37.5813038542154,127.019037924883
40062606,미등록 건물명,구미시 옥계동 744-8,월세,원룸,200,20,5,10.0,없음,20050824,2024-08-16,36.1371635807976,128.424353687976
40062628,미등록 건물명,강서구 화곡동 1059-6,월세,원룸,1000,55,1.5,6.4,"['화곡역', '우장산역']",19910314,2024-03-06,37.5455497098905,126.841948554113
40062630,미등록 건물명,달성군 현풍읍 147-3,월세,원룸,300,25,10,8.0,없음,20150722,2024-04-03,35.7001284269618,128.446895379312
40062634,운정역HB하우스토리시티,파주시 와동동 1431,월세,오피스텔,1000,100,13,12.9,['운정역'],20231023,2024-03-21,37.7265993,126.761398
40062637,지앤느모란,성남시 중원구 성남동 3135,전세,오피스텔,18000,0,0,6.1,"['모란역', '수진역', '태평역']",20200428,2024-03-05,37.4340644602504,127.134286392179
40062639,미등록 건물명,전라북도 익산시 모현동1가,월세,원룸,300,40,5,10.0,없음,2020.07.09,2024-03-29,35.9491791194356,126.945777894766
40062640,미등록 건물명,영등포구 영등포동5가 130,월세,원룸,1000,60,0,7.6,"['영등포시장역', '영등포역', '신길역']",19680720,2024-03-06,37.5213655033187,126.907062031057
40062653,미등록 건물명,미추홀구 용현동 116-51,월세,빌라,100,45,0,8.6,"['도화역', '제물포역']",19900702,2024-03-24,37.4559971653377,126.663776328275
40062657,미등록 건물명,천안시 서북구 성정동 1217-1,월세,빌라,2000,70,8,22.4,['두정역'],20150930,2024-03-21,36.8283327092465,127.13416121493
40062661,미등록 건물명,용인시 기흥구 구갈동 349-11,월세,원룸,2000,55,6,12.0,"['신갈역', '기흥역']",2001년9월17일,2024-03-25,37.2815900275349,127.112312741878
40062663,미등록 건물명,청주시 흥덕구 복대동 2821,월세,원룸,200,29,11,6.5,없음,20181011,2024-06-11,36.6319090431983,127.427202116051
40062666,미등록 건물명,남구 신정동 1171-24,월세,원룸,100,20,10,7.0,없음,19971110,2024-08-12,35.536082408266,129.306728528484
40062696,미등록 건물명,송파구 문정동 48-19,월세,빌라,5000,67,4,13.0,"['문정역', '가락시장역', '경찰병원역']",2004.06.21,2024-03-09,37.4875338284365,127.123710992182
40062697,미등록 건물명,동대문구 용두동 118-3,전세,빌라,25000,0,0,20.9,"['제기동역', '용두역', '신설동역']",19891130,2024-03-14,37.5759207163275,127.032182747162
40062698,제주트리뷰아일랜드,제주시 이도일동 1690-4,월세,오피스텔,300,53,8,6.0,없음,2018.9.20,2024-03-22,33.5048697,126.525933
40062702,미등록 건물명,천안시 서북구 두정동 1659,월세,빌라,500,65,10,16.0,['두정역'],20021107,2024-03-22,36.8378172303461,127.149416828434
40062715,미등록 건물명,전라북도 익산시 부송동,월세,원룸,200,25,5,10.0,없음,2008.05.28,2024-03-07,35.9546183429083,126.992948980104
40062722,수진역더리브프리미어,성남시 중원구 성남동 2167,전세,오피스텔,40000,0,0,23.4,"['수진역', '신흥역', '모란역']",20240115,2024-07-15,37.4366854699259,127.14022146254
40062724,미등록 건물명,송파구 석촌동 245-7,월세,원룸,3000,60,10,5.8,"['석촌고분역', '석촌역', '송파역']",2021-02-10 ,2024-03-05,37.502154769414,127.10039671283
40062725,미등록 건물명,북구 오치동 1047-5,월세,원룸,200,26,6,6.0,없음,2018-06-28,2024-03-12,35.1853867015973,126.915692827099
40062728,미등록 건물명,부천시 원미구 심곡동 386-8,월세,원룸,500,39,7,6.0,"['부천역', '소사역', '중동역']",19950425,2024-05-24,37.4847281631936,126.7806917572
40062738,미등록 건물명,전라북도 익산시 부송동,월세,원룸,200,25,5,10.0,없음,2008.05.28,2024-03-07,35.9546183429083,126.992948980104
40062743,미등록 건물명,서구 내방동 840-65,월세,빌라,300,42,5,10.0,"['쌍촌역', '화정역', '농성역']",20170313,2024-03-10,35.1523877962246,126.873164136608
40062749,미등록 건물명,광진구 중곡동 18-129,전세,빌라,26250,0,5,16.0,"['중곡역', '용마산역', '군자역']",20180201,2024-03-05,37.5644263861895,127.088165939924
40062751,미등록 건물명,평택시 안중읍 471-5,월세,원룸,500,52,8,7.1,없음,2023.1.16위,2024-03-07,36.9844741746296,126.930748559418
40062757,미등록 건물명,경기도 시흥시 정왕동,월세,원룸,300,30,5,9.0,"['정왕역', '오이도역']",2001.11.30,2024-03-07,37.3499757476334,126.741927767866
40062760,미등록 건물명,강남구 논현동 219-9,전세,빌라,27000,0,7,9.0,"['학동역', '언주역', '강남구청역']",2015-01-23,2024-03-15,37.5120212091745,127.034425250009
40062764,미등록 건물명,은평구 역촌동 48-4,매매,빌라,4,9.0,"['구산역', '역촌역', '응암역']",20220520,2024-03-29,37.6060606941316,126.914115966773
40062766,미등록 건물명,구미시 옥계동 749-11,월세,원룸,200,29,6,13.0,없음,20100203,2024-08-16,36.1357136724477,128.423807579979
40062768,미등록 건물명,천안시 서북구 두정동 1225,전세,빌라,15000,0,10,22.0,['두정역'],20151111,2024-03-14,36.8346216975541,127.139041253149
40062777,미등록 건물명,서울시 광진구 자양동,월세,빌라,20000,45,1,15.2,"['구의역', '건대입구역', '뚝섬유원지역']",1986.05.26,2024-03-11,37.5354101463716,127.078659433117
40062782,미등록 건물명,은평구 응암동 599-47,전세,빌라,28000,0,6,17.5,"['새절역', '증산역', '응암역']",20180103,2024-03-08,37.5891163715088,126.915970353017
40062787,미등록 건물명,천안시 서북구 성정동 1287,월세,원룸,300,35,6,7.0,['두정역'],20110805,2024-03-31,36.8285645862494,127.139005743522
40062795,미등록 건물명,성남시 수정구 고등동 595-4,월세,빌라,20000,200,10,22.3,없음,20200326,2024-03-07,37.4279520790775,127.094957713265
40062796,미등록 건물명,달성군 현풍읍 471-3,월세,원룸,500,35,10,10.0,없음,20141114,2024-04-03,35.6978731572597,128.457378218169
40062804,여의도이튼브라운,영등포구 영등포동1가 92-3,월세,오피스텔,15000,105,10,8.7,"['신길역', '영등포역', '영등포시장역']",2022년 12월 23일,2024-04-30,37.5184364172684,126.913198437024
40062808,미등록 건물명,연수구 선학동 31-3,월세,원룸,300,35,7,8.0,"['문학경기장역', '인천터미널역', '선학역']",20110721,2024-03-18,37.43622633028072,126.69704646889733
40062813,르씨엘시티,동래구 온천동 1248-8,월세,오피스텔,1000,30,10,4.9,"['미남역', '사직역', '동래역']",2022.10.27,2024-03-18,35.2053664911983,129.067190310716
40062814,미등록 건물명,전라남도 목포시 상동,월세,원룸,300,35,6,8.0,없음,2000,2024-03-06,34.7985075261588,126.435199593713
40062815,미등록 건물명,평택시 진위면 330-5,월세,원룸,500,47,8,8.0,없음,20180313,2024-03-26,37.123973312017,127.0815711495
40062816,미등록 건물명,동대문구 용두동 118-3,월세,빌라,15000,70,0,20.9,"['제기동역', '용두역', '신설동역']",19891130,2024-03-14,37.5759207163275,127.032182747162
40062825,미등록 건물명,아산시 배방읍 243-4,월세,원룸,30,25,0,7.0,없음,20021208,2024-03-06,36.7395265813064,127.078115862381
40062826,미등록 건물명,전주시 완산구 서완산동2가 79-70,월세,빌라,500,45,10,15.0,없음,20180703,2024-03-27,35.8109558863299,127.133248857136
40062828,미등록 건물명,경기도 구리시 수택동,월세,빌라,500,45,0,13.0,['구리역'],1993.06.28,2024-03-05,37.5948814985003,127.144338133683
40062832,미등록 건물명,청주시 흥덕구 비하동 667-6,월세,원룸,200,25,10,7.7,없음,2013.06.21,2024-03-12,36.6379193269837,127.420256415645
40062839,미등록 건물명,사하구 하단동 498-18,월세,원룸,300,15,10,6.0,"['하단역', '당리역']",1991. 11. 25,2024-03-14,35.1114122817816,128.964664086937
40062840,미등록 건물명,청주시 흥덕구 복대동 1673,월세,원룸,100,29,9,7.3,없음,2012. 12. 14,2024-08-19,36.6301522397059,127.449192785821
40062848,미등록 건물명,전주시 덕진구 인후동1가 880-5,월세,빌라,300,28,5,15.0,없음,20101224,2024-03-06,35.8284626104789,127.161598152875
40062850,미등록 건물명,달성군 현풍읍 121,월세,원룸,300,25,10,10.0,없음,20140818,2024-07-16,35.6961596034763,128.449987696272
40062853,미등록 건물명,서울시 마포구 창전동,월세,원룸,500,45,5,6.0,"['서강대역', '신촌역', '광흥창역']",1995- 06- 26,2024-03-07,37.55341265766474,126.93256862318697
40062855,미등록 건물명,미추홀구 주안동 849-45,월세,빌라,100,56,9,12.0,['시민공원(문화창작지대)역'],19950530,2024-03-06,37.4475904899786,126.673877624842
40062857,호매실중앙파크뷰,수원시 권선구 호매실동 1401,월세,오피스텔,1000,90,9,12.0,없음,20210526,2024-03-16,37.2581652714739,126.962585545384
40062858,미등록 건물명,남구 이천동 288-16,전세,빌라,11000,0,9.9,13.0,"['대봉교역', '건들바위역', '경대병원역']",20240228 예정,2024-03-08,35.8527779768905,128.603459667042
40062871,미등록 건물명,전라북도 전주시 완산구 효자동3가,월세,빌라,1000,61,9,22.0,없음,2009.2.25.,2024-03-19,35.8128972820928,127.095796903532
40062882,미등록 건물명,경기도 성남시 분당구 분당동,월세,빌라,1000,45,5,15.0,없음,19971213,2024-03-12,37.3749373141874,127.144124826425
40062884,미등록 건물명,인천시 연수구 연수동,월세,원룸,40,37,5,8.0,['연수역'],19970625,2024-03-06,37.4256850129716,126.673165666039
40062888,미등록 건물명,마포구 합정동 429-3,월세,빌라,5000,115,0,18.2,"['망원역', '합정역', '상수역']",20081010,2024-03-08,37.5527226815796,126.91024582581
40062889,미등록 건물명,남구 대명동 615-3,월세,원룸,200,15,10,10.0,"['안지랑(대구가톨릭대학교병원)역', '대명역', '현충로역']",20070112,2024-03-12,35.8339184178614,128.571864942526
40062891,미등록 건물명,경상남도 거제시 고현동,월세,원룸,200,28,5,11.0,없음,2014년05월,2024-03-08,34.8828544266604,128.621737113503
40062895,미등록 건물명,서산시 석남동 16-1,월세,빌라,500,55,0,18.0,없음,2014-02-24,2024-03-10,36.7724623007045,126.453752645208
40062898,미등록 건물명,남동구 간석동 267-13,월세,원룸,50,58,10,10.0,"['간석오거리역', '동암역', '간석역']",2023.6.5,2024-03-05,37.4660995705909,126.702999165154
40062901,팔라디움,천안시 서북구 두정동 1478,월세,오피스텔,300,40,9,6.0,['두정역'],20130603,2024-03-09,36.8323932248662,127.143470068923
40062907,서면더블루S,부산진구 전포동 892-22,월세,오피스텔,500,43,8,8.0,"['전포역', '범내골역', '국제금융센터·부산은행역']",20120817,2024-03-07,35.150001525878906,129.0638885498047
40062916,미등록 건물명,창원시 성산구 사파동 67-12,월세,원룸,500,20,2,8.0,없음,19960819,2024-03-27,35.2221190154747,128.703690412985
40062930,미등록 건물명,구리시 수택동 479-1,월세,원룸,25,55,5,8.0,['구리역'],1989.01.16,2024-08-21,37.59502483857881,127.14631999113476
40062932,미등록 건물명,창원시 성산구 사파동 69-9,월세,원룸,200,25,0,7.0,없음,20010801,2024-03-31,35.2226170221142,128.7030248502
40062934,미등록 건물명,남구 삼산동 1542-6,월세,원룸,200,30,8,8.0,['태화강역'],19980224,2024-08-19,35.5442443419521,129.34345942114
40062937,미등록 건물명,구리시 갈매동 552-12,월세,원룸,1000,75,15,10.8,"['갈매역', '별내역']",20220901,2024-03-11,37.6352220255008,127.12485645911
40062938,미등록 건물명,전라북도 군산시 산북동,월세,빌라,300,32,8,14.0,없음,2011,2024-03-08,35.9690110951655,126.676920165251
40062940,미등록 건물명,성남시 수정구 수진동 3438,전세,빌라,9200,0,0,12.3,"['태평역', '수진역', '모란역']",1991/07/20,2024-03-08,37.4377915138551,127.13252658697
40062941,미등록 건물명,서대문구 연희동 287-8,월세,빌라,1000,100,20,12.0,"['홍대입구역', '신촌역', '신촌역']",20010929,2024-03-26,37.5656478532793,126.930887042961
40062942,i-palace(아이펠리스),화성시 반송동 87-5,월세,오피스텔,500,45,20,5.4,없음,2016.05.20,2024-03-07,37.2064552307129,127.07413482666
40062945,미등록 건물명,평택시 안중읍 483-8,월세,원룸,6000,10,10,5.0,없음,2021.03.10,2024-03-14,36.9821785170744,126.932058589992
40062951,미등록 건물명,전라북도 전주시 완산구 서신동,월세,빌라,1000,65,5,18.0,없음,20181102,2024-03-25,35.8362240293483,127.109929010152
40062959,미등록 건물명,연제구 연산동 1299-18,월세,원룸,100,20,9,5.4,"['연산역', '거제역', '시청역']",20111004,2024-03-11,35.1846026646547,129.077688502609
40062961,미등록 건물명,달성군 유가읍 617-4,월세,원룸,300,25,10,9.0,없음,2020.05.29,2024-03-11,35.7006040524587,128.464072402359
40062965,미등록 건물명,경기도 시흥시 정왕동,월세,원룸,200,29,4,7.5,['능길역'],2001.02.09,2024-03-07,37.339738378463,126.754595636471
40062967,미등록 건물명,경기도 시흥시 정왕동,월세,빌라,1000,50,5,16.0,['정왕역'],20010912,2024-03-05,37.3420292933995,126.747089842121
40062970,부천역이테크에비뉴스타,부천시 소사구 심곡본동 671-1,월세,오피스텔,1500,75,10,11.0,"['부천역', '소사역']",2019/8/30,2024-03-07,37.4826953,126.781301
40062972,미등록 건물명,강서구 가양동 1479-1,월세,원룸,5000,45,10,7.0,"['가양역', '양천향교역', '증미역']",2011-03-10 ,2024-03-26,37.5640015008106,126.851459778481
40062975,미등록 건물명,수원시 영통구 매탄동 923-26,월세,원룸,3000,60,8,12.1,"['수원시청역', '매탄권선역']",20220228,2024-03-06,37.2646093025436,127.041083049807
40062977,미등록 건물명,강북구 번동 460-72,월세,빌라,300,32,0,10.0,"['수유역', '쌍문역', '화계역']",19930811,2024-03-29,37.6374453415845,127.031521435882
40062979,미등록 건물명,김해시 내동 163-12,월세,원룸,500,35,5,12.0,"['박물관역', '연지공원역', '수로왕릉(김해터미널)역']",20171017,2024-03-25,35.2407603626118,128.861208946556
40062982,장안뉴시티,동대문구 장안동 372-5,월세,오피스텔,1000,50,9,6.7,"['장한평역', '중곡역']",20120118,2024-03-13,37.5700912475586,127.069946289063
40062987,미등록 건물명,경기도 김포시 구래동,월세,원룸,500,50,8,8.0,"['구래역', '양촌역', '마산역']",2015.08.28,2024-04-05,37.6382400804411,126.628461763224
40062991,미등록 건물명,중구 운남동 1521-2,월세,원룸,200,30,7,7.0,없음,20170125,2024-03-05,37.4916015151061,126.534011201151
40062993,미등록 건물명,송파구 삼전동 68-13,월세,빌라,20000,100,2,24.0,"['석촌고분역', '삼전역', '대청역']",19911216,2024-03-11,37.499567415087,127.09155738456
40063002,미등록 건물명,오산시 궐동 648-7,월세,빌라,1000,52,8,15.0,"['오산대역', '오산역']",2004.10.28,2024-07-24,37.1575493214191,127.061473512311
40063003,미등록 건물명,송파구 방이동 117-10,월세,빌라,15000,70,4,18.1,"['송파나루역', '한성백제역', '석촌역']",20031126,2024-03-05,37.5095452401717,127.114950536478
40063004,미등록 건물명,오산시 내삼미동 854-7,월세,원룸,500,45,7,9.0,['오산대역'],2013.07.22,2024-03-12,37.1748172101105,127.058195434915
40063006,미등록 건물명,성동구 행당동 1-110,월세,원룸,500,30,1,4.0,"['왕십리역', '마장역', '한양대역']",19801015,2024-03-15,37.5618919632506,127.040074062628
40063007,미등록 건물명,거제시 장평동 95-55,월세,원룸,100,29,5,10.0,없음,20111110,2024-03-11,34.8897996663653,128.611586158797
40063015,미등록 건물명,창원시 진해구 용원동 1222-3,월세,원룸,200,37,8,15.0,없음,2015년3월31일,2024-03-09,35.10061004042861,128.8155655801061
40063020,미등록 건물명,강동구 성내동 130-15,월세,원룸,2000,35,6,5.4,"['천호역', '강동구청역', '강동역']",2020.01.02,2024-03-08,37.534237036584,127.124196763193
40063023,미등록 건물명,성동구 마장동 388-16,월세,원룸,2000,70,7,6.5,"['마장역', '왕십리역', '용답역']",20120711,2024-03-07,37.5628470151032,127.042907017394
40063027,미등록 건물명,평택시 안중읍 835-8,월세,원룸,500,55,10,9.0,없음,2021.04.26,2024-03-14,36.9806428825739,126.928669686981
40063033,메트하임,은평구 응암동 115-8,월세,오피스텔,1000,45,6,4.2,"['응암역', '역촌역', '새절역']",20150430,2024-03-06,37.5984232434189,126.919576834973
40063036,미등록 건물명,북구 호계동 283-14,월세,원룸,200,25,5,9.0,없음,20020312,2024-03-25,35.6289917288923,129.35507971163
40063040,미등록 건물명,중구 운남동 1522-7,월세,원룸,200,30,7,7.0,없음,20170615,2024-03-15,37.4918161433747,126.533602793062
40063051,미등록 건물명,청주시 상당구 용암동 1496,월세,원룸,300,27,10,7.0,없음,20000128,2024-08-20,36.6104661376966,127.500241188671
40063053,미등록 건물명,중구 운남동 1545,월세,원룸,200,23,7,7.0,없음,20161014,2024-03-27,37.492441451343055,126.52770984258464
40063065,미등록 건물명,아산시 둔포면 242-1,전세,원룸,5000,0,9,13.0,없음,2018.09.10,2024-04-04,36.9303242732032,127.041555870783
40063066,미등록 건물명,오산시 수청동 566-5,월세,원룸,500,55,10,11.0,['오산대역'],2013.04.15,2024-03-08,37.1710251553391,127.059207818328
40063080,미등록 건물명,경기도 안산시 상록구 사동,월세,빌라,500,50,0,14.0,"['사리역', '상록수역', '한대앞역']",19950925,2024-03-05,37.29777114633008,126.85785790323902
40063083,미등록 건물명,강남구 논현동 161-13,전세,빌라,30000,0,0,17.0,"['논현역', '신논현역', '언주역']",19920916,2024-03-09,37.5088237751626,127.024462128104
40063085,미등록 건물명,구리시 갈매동 552-12,월세,원룸,50,80,15,10.8,"['갈매역', '별내역']",20220901,2024-03-05,37.6352220255008,127.12485645911
40063090,미등록 건물명,광명시 일직동 503,전세,빌라,26000,0,6,19.0,['광명역'],20140730,2024-03-28,37.4215985963953,126.889919915792
40063096,미등록 건물명,청주시 흥덕구 복대동 1615,월세,원룸,300,29,9,7.0,없음,2011. 12. 28,2024-08-29,36.6324556423637,127.451451482402
40063100,미등록 건물명,남구 삼산동 1530-36,월세,원룸,300,26,9,7.0,['태화강역'],20120525,2024-03-07,35.5472193104114,129.343892768514
40063103,미등록 건물명,동작구 상도동 247-6,월세,원룸,500,50,6,6.0,"['신대방삼거리역', '장승배기역', '서울지방병무청역']",20080717,2024-03-08,37.5000983873346,126.933509326121
40063104,미등록 건물명,청주시 서원구 사창동 299-6,전세,원룸,7200,0,13,13.0,없음,2023.03.22,2024-03-21,36.6340676085333,127.466715717379
40063106,스마트리치연산,연제구 연산동 1244-4,전세,오피스텔,10000,0,7,6.8,"['연산역', '거제역', '시청역']",20210702,2024-03-29,35.185641657691534,129.07970086844213
40063112,다성이즈빌(416-17),강동구 길동 416-17,전세,오피스텔,21000,0,8,7.0,"['강동역', '길동역', '둔촌동역']",2021.11.05,2024-03-16,37.5369632,127.135848
40063113,미등록 건물명,용인시 수지구 풍덕천동 667-6,월세,원룸,1000,45,3,7.0,"['동천역', '수지구청역', '죽전역']",1996년6월26일,2024-03-05,37.3320697884139,127.098470035453
40063116,미등록 건물명,서울시 송파구 잠실동,월세,원룸,3000,40,3,9.0,"['삼전역', '잠실새내역', '석촌고분역']",1989-07-26,2024-07-12,37.5054887605482,127.08625297421273
40063117,미등록 건물명,창원시 진해구 용원동 1222-3,월세,원룸,200,37,8,14.0,없음,2015-03-31,2024-03-14,35.1006095685782,128.815566995196
40063119,미등록 건물명,경기도 평택시 안중읍,월세,원룸,200,30,12,9.0,없음,2011  9   30,2024-03-14,36.9817942085081,126.92764314871
40063122,이오스,수원시 권선구 권선동 1023-2,월세,오피스텔,500,55,8,7.1,"['수원시청역', '매탄권선역', '매교역']",20041014,2024-03-18,37.2607765197754,127.031036376953
40063126,미등록 건물명,인천시 연수구 연수동,월세,원룸,40,26,5,7.0,"['연수역', '신연수역']",19960618,2024-03-11,37.4263832595495,126.680868091492
40063128,미등록 건물명,평택시 안중읍 456-1,월세,원룸,3000,40,10,10.6,없음,"미등기신축건물, 2024년 3월 중순 준공예정",2024-03-14,36.9836337241061,126.936200021429
40063137,미등록 건물명,서울시 용산구 청파동3가,월세,원룸,1000,45,5,5.5,"['숙대입구역', '남영역', '효창공원앞역']",19631230,2024-03-05,37.5439082105578,126.969885930294
40063141,미등록 건물명,경기도 성남시 중원구 성남동,월세,원룸,3000,40,0,8.0,"['모란역', '수진역', '태평역']",19910107,2024-03-20,37.4296636879315,127.13478820009
40063143,경은하우스,천안시 서북구 성정동 1312,월세,오피스텔,1000,30,6,5.8,['두정역'],20120223,2024-03-27,36.8290697848321,127.140583263862
40063144,미등록 건물명,평택시 안중읍 456-2,월세,원룸,500,48,7,7.0,없음,"미등기신축건물, 2024년 2월 중순 준공예정",2024-03-05,36.9833759343948,126.936052310783
40063146,충무로역스위트엠,중구 묵정동 32-5,월세,오피스텔,170,110,10,5.6,"['충무로역', '을지로4가역', '동대입구역']",20210324,2024-07-29,37.56227610097013,126.99959706607152
40063148,미등록 건물명,춘천시 신동면 381-2,월세,원룸,500,40,8,8.0,['김유정역'],2021-07-22,2024-05-02,37.8149049174951,127.71607019124
40063149,미등록 건물명,경기도 안산시 상록구 일동,매매,빌라,1,21.2,['상록수역'],20070824,2024-04-06,37.3147030092956,126.87213028395
40063150,하단드리움,사하구 하단동 618-11,월세,오피스텔,300,37,10,7.0,"['하단역', '당리역', '신평역']",2021.01.22,2024-03-14,35.1050958003651,128.967895178342
40063152,미등록 건물명,도봉구 쌍문동 88-8,월세,원룸,1000,50,7,6.0,"['쌍문역', '창동역']",2017-11-29,2024-03-19,37.6505397839999,127.035066441748
40063153,미등록 건물명,평택시 안중읍 456-2,월세,원룸,1000,55,10,9.1,없음,"미등기신축건물, 2024년 2월 중순 준공예정",2024-04-03,36.9833759343948,126.936052310783
40063156,미등록 건물명,경기도 성남시 중원구 성남동,월세,빌라,2000,80,2,16.0,"['모란역', '태평역', '수진역']",19860711,2024-03-11,37.4318715970383,127.131130703286
40063161,골드라인,영등포구 당산동6가 335-3,전세,오피스텔,27500,0,10,10.2,"['당산역', '선유도역', '영등포구청역']",2018.02.28,2024-03-05,37.5356369018555,126.901962280273
40063162,미등록 건물명,서초구 반포동 728-5,월세,원룸,500,65,7,7.0,"['사평역', '신논현역', '논현역']",1996-06-29,2024-03-08,37.5063407910239,127.018485383226
40063168,미등록 건물명,광진구 중곡동 90-12,월세,빌라,30000,150,7,16.8,"['아차산역', '군자역', '중곡역']",20210903,2024-03-05,37.5560481880228,127.090207803805
40063171,미등록 건물명,미추홀구 문학동 386-8,월세,원룸,50,28,5,5.9,"['문학경기장역', '인천터미널역']",2002 ㆍ2 ㆍ28,2024-03-15,37.4373568399579,126.687566275601
40063182,미등록 건물명,오산시 궐동 686-4,월세,원룸,60,36,9,7.0,없음,2011.12.21,2024-03-05,37.1576327832569,127.053631197425
40063183,미등록 건물명,거제시 장평동 120-1,월세,원룸,100,25,5,8.0,없음,2013년,2024-03-16,34.8882965452961,128.603454934263
40063187,미등록 건물명,서구 화정동 744-55,월세,빌라,200,35,5,10.0,"['화정역', '쌍촌역', '농성역']",20110915,2024-03-10,35.152482710461,126.874811842163
40063190,미등록 건물명,평택시 안중읍 460-4,월세,빌라,1000,95,15,19.7,없음,2023.12.21,2024-04-03,36.9827623709362,126.934537185662
40063191,미등록 건물명,강서구 화곡동 868-29,월세,빌라,4000,110,6,13.2,"['까치산역', '신정역', '목동역']",2022.04.28,2024-05-17,37.5336324840839,126.854733328414
40063195,미등록 건물명,성북구 보문동6가 310,월세,원룸,1000,60,5,6.0,"['창신역', '신설동역', '보문역']",2008-09-03 ,2024-09-02,37.5790713373391,127.019794385719
40063206,수진역코아루천년가,성남시 중원구 성남동 2201,월세,오피스텔,1000,67,9,7.1,"['수진역', '신흥역', '모란역']",20190726,2024-03-06,37.4358528027752,127.139950307918
40063213,미등록 건물명,구리시 갈매동 552-12,월세,원룸,500,80,15,10.8,"['갈매역', '별내역']",20220901,2024-04-04,37.6352220255008,127.12485645911
40063216,미등록 건물명,안산시 단원구 선부동 1098-6,매매,빌라,1,17.4,"['달미역', '선부역']",20221207,2024-03-31,37.3456051253937,126.816110037195
40063218,미림A클래스13차,금천구 독산동 301-23,전세,오피스텔,22000,0,6,7.8,"['독산역', '가산디지털단지역']",2021-01-15,2024-03-14,37.4719202285254,126.89317020226
40063225,미등록 건물명,경기도 시흥시 정왕동,월세,원룸,300,30,5,8.2,['정왕역'],20030314,2024-03-11,37.3484652569273,126.744080130686
40063230,미등록 건물명,계양구 계산동 974-20,매매,빌라,1,17.3,"['경인교대입구역', '계산역', '작전역']",20230825,2024-03-31,37.5402213925381,126.721313370881
40063231,미등록 건물명,서초구 서초동 1508-11,전세,빌라,43000,0,7,8.9,"['서초역', '남부터미널역', '교대역']",20231102,2024-03-11,37.4875870250042,127.007203860527
40063233,미등록 건물명,남구 신정동 452-22,월세,원룸,100,30,10,5.5,없음,20120713,2024-03-24,35.5480752865365,129.310473493529
40063244,미등록 건물명,김해시 외동 1194-7,월세,원룸,300,31,7,13.0,"['수로왕릉(김해터미널)역', '박물관역']",20080718,2024-03-08,35.2349912227527,128.858711844259
40063251,미등록 건물명,오산시 궐동 686-4,월세,원룸,60,39,6,7.0,없음,2011.12.21,2024-07-24,37.1576327832569,127.053631197425
40063254,미등록 건물명,서구 쌍촌동 902-66,월세,원룸,200,24,9,9.0,"['운천(호남대입구)역', '상무역', '김대중컨벤션센터(마륵)역']",20030325,2024-03-05,35.1418469672275,126.857624326835
40063259,미등록 건물명,경상북도 경산시 대동,월세,원룸,100,32,5,8.0,"['영남대역', '임당역']",20030903,2024-03-16,35.839542133423,128.751669698288
40063263,미등록 건물명,군포시 당동 745-8,매매,빌라,5,17.7,"['군포역', '당정역', '산본역']",20211021,2024-03-31,37.3542559282107,126.946171894917
40063266,미등록 건물명,광진구 화양동 37-11,월세,빌라,5000,75,7,9.0,"['건대입구역', '어린이대공원역', '성수역']",2011년 08월23일,2024-03-22,37.5442215105088,127.066905859769
40063267,미등록 건물명,경상북도 영주시 영주동,월세,원룸,300,35,5,9.1,없음,20170310,2024-04-03,36.8254685450609,128.618461281627
40063268,미등록 건물명,강동구 성내동 116-1,월세,빌라,7000,55,2.5,13.0,"['천호역', '강동구청역', '강동역']",1996.12.30,2024-03-16,37.5342941288074,127.123280639484
40063270,미등록 건물명,청주시 흥덕구 비하동 75-48,전세,원룸,4500,0,8,13.0,없음,2006.7.19,2024-03-14,36.6255367747995,127.422884521641
40063273,미등록 건물명,북구 호계동 277-16,월세,원룸,200,25,5,9.0,없음,20090508,2024-03-05,35.6282290449913,129.353362921742
40063281,미등록 건물명,창원시 의창구 사림동 17-12,월세,원룸,200,29,1,8.0,없음,2011-04-21,2024-04-01,35.2391979864913,128.687712594553
40063285,미등록 건물명,달성군 유가읍 1150-8,월세,원룸,300,27,10,8.0,없음,2014.10.14,2024-03-11,35.6734920315027,128.455400914393
40063293,미등록 건물명,군산시 지곡동 508-8,월세,원룸,200,24,6,9.0,없음,20120621,2024-03-22,35.958454499644,126.707204365175
40063296,미등록 건물명,청주시 흥덕구 오송읍 1275,전세,빌라,12000,0,10,15.1,없음,2022.2.18,2024-03-31,36.6219610224796,127.320629737246
40063300,미등록 건물명,강서구 화곡동 917-16,매매,빌라,5,21.1,"['까치산역', '신정역', '신정네거리역']",20041228,2024-03-22,37.5297199551882,126.844045984658
40063305,파비오더씨타,수원시 팔달구 인계동 1125-1,월세,오피스텔,15000,80,13,18.0,"['수원시청역', '매탄권선역']",20230823,2024-04-01,37.2609539,127.032234
40063306,미등록 건물명,고양시 일산동구 풍동 575-1,매매,빌라,0,14.9,"['풍산역', '백마역']",20200730,2024-07-09,37.6701482458386,126.791855115449
40063309,미등록 건물명,서울시 은평구 갈현동,월세,빌라,12000,40,1,24.1,"['연신내역', '구산역', '독바위역']",19901228,2024-03-12,37.6180129443142,126.918700565419
40063310,미등록 건물명,서구 괴정동 432,월세,원룸,3000,40,0,11.0,"['탄방역', '용문역']",20211117,2024-06-14,36.3366305935219,127.380163255486
40063312,미등록 건물명,성동구 용답동 28-15,전세,빌라,25000,0,7,7.6,"['용답역', '답십리역', '한양대역']",20211022,2024-04-02,37.5606460629167,127.052894789402
40063317,엔터팰리스2차,유성구 봉명동 607-5,월세,오피스텔,2000,55,8,5.9,"['유성온천(충남대·목원대)역', '구암역', '갑천역']",20180710,2024-03-13,36.35776138305664,127.3419952392578
40063318,미등록 건물명,군산시 지곡동 559-6,월세,원룸,200,27,6,13.0,없음,20110729,2024-03-05,35.9567275915631,126.712778655032
40063323,미등록 건물명,강동구 천호동 317-19,전세,빌라,35150,0,5.5,14.7,"['암사역', '천호역']",2018-08-17 ,2024-03-18,37.548111355059,127.124528712025
40063325,미등록 건물명,관악구 남현동 1082-5,전세,원룸,11000,0,9.9,6.0,"['사당역', '낙성대역', '남성역']",20190501,2024-03-06,37.47388508168,126.975258272088
40063329,젬펠리스,부평구 부평동 160-20,월세,오피스텔,50,40,9.9,6.7,"['부평역', '부평시장역', '동수역']",2012-04-24,2024-07-08,37.4916,126.7274
40063334,미등록 건물명,남구 달동 643-25,월세,원룸,300,29,9,10.0,없음,20030102,2024-03-06,35.5368958016577,129.319125376094
40063339,미등록 건물명,서구 괴정동 69-10,월세,원룸,300,37,4,10.0,"['탄방역', '용문역', '시청역']",2017.07.20,2024-03-16,36.3394543664767,127.380381820554
40063341,미등록 건물명,청주시 청원구 율량동 755,월세,원룸,200,31,9,9.0,없음,2013 04 26,2024-03-28,36.6711698225684,127.48552575082
40063343,미등록 건물명,평택시 안중읍 472-4,전세,빌라,11000,0,15,14.2,없음,2018.1.29,2024-04-03,36.984672774753,126.930288532106
40063346,미등록 건물명,북구 용봉동 149-1,월세,원룸,100,27,6,8.3,없음,2011.5.9.,2024-03-15,35.1777441851272,126.914523535866
40063349,거송그랑데리움,천안시 동남구 문화동 63-9,월세,오피스텔,500,55,8,14.0,['천안역'],20160325,2024-03-26,36.8088035583496,127.150619506836
40063355,미등록 건물명,경기도 시흥시 정왕동,월세,원룸,200,29,5,8.2,['정왕역'],20000710,2024-03-06,37.3467468039371,126.742619923943
40063356,미등록 건물명,평택시 서정동 897-2,월세,빌라,1000,82,8,27.0,"['서정리역', '송탄역']",2003년6월26일,2024-03-25,37.0620581823732,127.054265559631
40063359,미등록 건물명,중랑구 면목동 65-82,전세,빌라,33500,0,5,14.1,"['사가정역', '면목역', '상봉역']",20230323,2024-03-05,37.5855374591066,127.09291194595
40063364,미등록 건물명,거제시 장평동 7-23,월세,원룸,300,33,5,11.0,없음,2013.1124,2024-03-31,34.8939290412135,128.612251930597
40063372,미등록 건물명,송파구 잠실동 315-2,월세,빌라,11000,10,5,12.0,"['삼전역', '잠실새내역', '종합운동장역']",1997.9.12,2024-03-09,37.50470116533347,127.08391322877992
40063374,미등록 건물명,서울시 광진구 군자동,월세,원룸,300,30,5,4.9,"['군자역', '어린이대공원역', '아차산역']",1973.06.07,2024-03-05,37.5565135351225,127.077824196979
40063382,미등록 건물명,청주시 흥덕구 복대동 166-9,월세,원룸,150,23,9,10.0,없음,2012.11.15,2024-03-11,36.6332739871037,127.448533229823
40063386,미등록 건물명,중랑구 면목동 543-28,전세,빌라,32000,0,5,8.7,"['면목역', '사가정역', '상봉역']",20230327,2024-03-15,37.5865812949765,127.086584220602
40063387,미등록 건물명,수원시 영통구 신동 334-11,월세,원룸,300,45,7.5,6.0,"['망포역', '매탄권선역']",2012.10.04,2024-03-11,37.2482306505684,127.05434591296
40063388,미등록 건물명,미추홀구 문학동 383-11,월세,원룸,50,32,8,7.3,"['문학경기장역', '인천터미널역']",2002. 4.  9,2024-03-15,37.4378380312725,126.687006529047
40063394,미등록 건물명,오산시 궐동 699-3,월세,원룸,500,46,9,8.0,['오산역'],2017.12.21,2024-03-05,37.1563370329334,127.055838792335
40063396,미등록 건물명,아산시 배방읍 1032,월세,원룸,200,35,8,10.0,['배방역'],20110311,2024-03-08,36.772650039882,127.065203646246
40063397,미등록 건물명,동대문구 휘경동 294-335,전세,빌라,20000,0,0,16.0,"['회기역', '외대앞역']",1988.10.15,2024-03-28,37.5861540464106,127.060560945508
40063403,미등록 건물명,경기도 성남시 수정구 수진동,월세,빌라,1000,60,0,11.7,"['태평역', '모란역', '수진역']",2001년10월4일,2024-03-09,37.4366052757449,127.130793425878
40063406,미등록 건물명,동대문구 전농동 558-67,월세,원룸,500,35,0,9.0,"['청량리역', '신답역', '용두역']",19901015,2024-03-06,37.5788847929438,127.051534126544
40063407,미등록 건물명,경기도 김포시 마산동,월세,빌라,500,44,20,15.0,['마산역'],2019.5.22,2024-08-02,37.6336545852182,126.643635376971
40063409,미등록 건물명,평택시 안중읍 826-2,월세,빌라,2000,65,15,17.4,없음,2019.04.11,2024-04-05,36.9821883256294,126.930019100113
40063411,미등록 건물명,강남구 청담동 57-14,월세,원룸,1000,68,8,9.0,"['청담역', '압구정로데오역', '삼성중앙역']",20000502,2024-03-11,37.5232630341604,127.051911803479
40063413,미등록 건물명,마포구 망원동 433-8,월세,빌라,5000,95,5,19.4,"['마포구청역', '망원역', '월드컵경기장역']",19900614,2024-03-13,37.559132891238,126.90292519618
40063417,강동투웨니퍼스트,강동구 길동 416-15,월세,오피스텔,11000,90,12,10.4,"['강동역', '길동역', '둔촌동역']",2020.10.15,2024-03-11,37.5366752821593,127.135697347742
40063420,미등록 건물명,평택시 용이동 458-1,월세,원룸,200,30,10,10.0,없음,2010.10.06,2024-08-29,36.996492208528,127.139375505236
40063421,미등록 건물명,서구 탄방동 66-47,월세,원룸,100,27,1.4,9.0,"['용문역', '탄방역', '시청역']",2002.02.05,2024-03-16,36.3433277237942,127.39422592292
40063424,미등록 건물명,경기도 화성시 진안동,월세,빌라,1000,65,8,15.0,['병점역'],2009.10.28,2024-03-16,37.2194980435996,127.037735948331
40063427,미등록 건물명,천안시 서북구 성정동 660-15,월세,빌라,500,45,0,15.0,"['천안역', '두정역']",19900413,2024-03-11,36.8211584200656,127.142997401348
40063429,마곡센트럴대방디엠시티,강서구 마곡동 776-2,월세,오피스텔,1000,90,9,8.9,"['양천향교역', '발산역', '마곡나루역']",2017.01.04.,2024-07-17,37.568403,126.840364
40063432,미등록 건물명,수원시 영통구 매탄동 50-13,월세,원룸,1000,55,10,7.0,없음,20181227,2024-04-16,37.2697253262326,127.051042503834
40063434,미등록 건물명,시흥시 정왕동 2780-3,월세,원룸,200,25,10,6.0,없음,2018.07.25,2024-08-12,37.3174863589138,126.701366508381
40063438,미등록 건물명,구리시 갈매동 552-12,월세,원룸,1000,65,13,9.0,"['갈매역', '별내역']",20220901,2024-03-09,37.6352220255008,127.12485645911
40063447,미등록 건물명,서구 내방동 834-25,월세,빌라,300,45,5,13.0,"['쌍촌역', '화정역', '운천(호남대입구)역']",20170704,2024-03-12,35.1534000150086,126.870261697685
40063451,미등록 건물명,성북구 동선동2가 348,월세,원룸,1000,40,7,11.1,"['보문역', '성신여대입구역', '안암역']",20170926,2024-03-05,37.5896464333636,127.02206089584
40063453,미등록 건물명,김해시 내동 1083-1,월세,원룸,200,20,5,10.0,"['박물관역', '연지공원역', '수로왕릉(김해터미널)역']",2009-07-01,2024-03-18,35.241381163765496,128.86420186378254
40063455,미등록 건물명,평택시 안중읍 494-8,전세,빌라,11000,0,15,14.0,없음,2021.11.16,2024-04-05,36.9815413220017,126.93488540562
40063460,미등록 건물명,강동구 천호동 295-25,월세,빌라,3000,75,7,10.9,"['암사역', '굽은다리역', '길동역']",2016.8.18,2024-03-15,37.54563764598353,127.13265344768472
40063463,미등록 건물명,평택시 용이동 603-41,월세,원룸,300,25,20,5.9,없음,20170620,2024-08-29,36.996351320604,127.131114148414
40063467,가산지웰에스테이트2차,금천구 가산동 143-6,월세,오피스텔,1000,60,6,4.3,"['가산디지털단지역', '남구로역', '독산역']",20180829,2024-03-09,37.4774391,126.891005
40063469,정자동3차푸르지오시티,성남시 분당구 정자동 162-2,월세,오피스텔,120,120,18,9.0,"['정자역', '미금역']",20150612,2024-03-12,37.36248,127.1052
40063479,미등록 건물명,강북구 수유동 189-47,월세,원룸,3000,20,8,6.0,"['수유역', '가오리역', '화계역']",20171229,2024-03-25,37.6410176460945,127.024331941268
40063480,미등록 건물명,경기도 안산시 단원구 와동,월세,빌라,1000,42,3,11.9,['선부역'],1995.12.19,2024-03-18,37.3364926272365,126.817487396277
40063485,미등록 건물명,성남시 수정구 복정동 659-11,월세,원룸,5000,20,5,6.0,"['복정역', '남위례역']",20030902,2024-03-05,37.4628560412913,127.127897213154
40063489,미등록 건물명,부평구 십정동 405-5,월세,빌라,80,62,1,13.0,"['동암역', '간석오거리역', '간석역']",2001-08-11,2024-03-13,37.4715712556778,126.699560011754
40063495,미등록 건물명,광진구 화양동 499-86,월세,빌라,1000,85,0,10.6,"['어린이대공원역', '건대입구역', '군자역']",19860718,2024-03-05,37.5462009557595,127.075081015982
40063497,미등록 건물명,전라북도 전주시 덕진구 만성동,월세,빌라,5000,50,5,22.0,없음,2019.09.10,2024-04-03,35.8457370146055,127.073808460281
40063499,미등록 건물명,양주시 고암동 595-5,월세,빌라,2000,100,10,19.1,없음,20230301,2024-04-19,37.8317631892637,127.073211851424
40063501,미등록 건물명,계양구 효성동 8-18,전세,빌라,9020,0,2,14.0,"['작전역', '경인교대입구역']",20020329,2024-03-07,37.5321992239425,126.71648734593
40063504,미등록 건물명,서초구 반포동 742-16,월세,원룸,1000,75,10,7.2,"['사평역', '신논현역', '논현역']",2014년4월10일,2024-03-05,37.5040079974581,127.0201427905
40063509,스위트엠아크라시티3차,김포시 구래동 6871-54,월세,오피스텔,2000,25,7,6.3,"['양촌역', '구래역']",2021.1.22,2024-03-07,37.6407964652373,126.62004235792392
40063510,미등록 건물명,경기도 시흥시 정왕동,월세,원룸,100,27,3,8.5,['능길역'],2003.12.17,2024-03-30,37.341560084096,126.75664902003
40063511,미등록 건물명,이천시 대월면 347-75,월세,원룸,500,50,5,10.0,없음,2017-08-03,2024-03-25,37.2437129994542,127.49414038516
40063519,미사역마이움푸르지오시티,하남시 망월동 1135,월세,오피스텔,500,60,8,5.7,"['미사역', '하남풍산역']",20200714,2024-03-21,37.5619486,127.194833
40063522,미등록 건물명,김해시 내동 1103-3,월세,원룸,300,27,7,13.0,"['박물관역', '수로왕릉(김해터미널)역']",20041027,2024-03-06,35.23695910188774,128.8592192946245
40063523,미등록 건물명,거제시 장평동 57-8,월세,빌라,300,55,5,25.0,없음,20140721,2024-03-19,34.89086151123046,128.61457824707057
40063524,글로벌하임,수원시 팔달구 인계동 1035-11,전세,오피스텔,23100,0,13,13.0,"['수원시청역', '매교역']",20200103,2024-06-07,37.2672643502667,127.029463638542
40063525,미등록 건물명,성남시 수정구 복정동 664-7,월세,원룸,500,35,6,8.0,"['복정역', '남위례역', '가천대역']",2010  09,2024-03-18,37.4621827555655,127.128358934712
40063526,미등록 건물명,중구 대흥동 505-14,월세,원룸,500,50,2,12.0,"['중구청역', '중앙로역', '서대전네거리역']",2015-12-1,2024-07-29,36.3248118145908,127.421497855971
40063529,미등록 건물명,강남구 논현동 272-23,월세,빌라,3000,145,12,18.1,"['선정릉역', '언주역', '강남구청역']",1995-07-19 ,2024-03-05,37.5107407046685,127.040126439296
40063530,미등록 건물명,수원시 영통구 망포동 17-13,월세,원룸,3000,28,7,6.5,"['망포역', '매탄권선역']",2011.11.25,2024-03-27,37.2467011466503,127.053512225917
40063531,미등록 건물명,천안시 서북구 성정동 1038,월세,원룸,100,35,6,9.0,['천안역'],2007.01.23,2024-03-09,36.8178052646316,127.133657205562
40063532,미등록 건물명,김해시 진영읍 725-16,월세,원룸,500,40,5,11.0,없음,2017년10월11일,2024-03-18,35.3012371307734,128.735553829893
40063539,미등록 건물명,서구 관저동 1661,월세,빌라,2000,65,1.5,18.0,없음,20170907,2024-03-31,36.3067165235603,127.333179644173
40063542,미등록 건물명,평택시 서정동 832-17,월세,빌라,300,25,0,12.1,"['송탄역', '서정리역']",19891025,2024-03-05,37.0673826865018,127.056058900449
40063550,미등록 건물명,광양시 광양읍 1738-10,월세,원룸,100,35,5,12.0,없음,20111020,2024-07-22,34.9641551570862,127.578293316389
40063552,미등록 건물명,성남시 분당구 이매동 272,전세,원룸,13000,0,4,9.0,"['이매역', '성남역', '서현역']",2012. 05,2024-04-05,37.39504911773384,127.13347174665992
40063554,풍무참존인터시티,김포시 풍무동 832,월세,오피스텔,500,65,15,8.2,"['풍무역', '사우(김포시청)역']",201901.15,2024-03-07,37.6141236,126.72911
40063564,미등록 건물명,원주시 관설동 1705-5,월세,원룸,300,33,5,15.0,없음,20081218,2024-03-18,37.318046247319,127.964804964265
40063566,미등록 건물명,경기도 시흥시 정왕동,월세,빌라,1000,50,5,17.0,['정왕역'],2003.02.26,2024-03-05,37.3420292933995,126.747089842121
40063569,미등록 건물명,서구 관저동 1661,월세,빌라,2000,60,1.5,18.0,없음,20170907,2024-03-31,36.3067165235603,127.333179644173
40063570,미등록 건물명,안산시 상록구 사동 1350-16,매매,빌라,1,18.6,['사리역'],2013.7.23,2024-04-01,37.2941126318625,126.845325615188
40063571,미등록 건물명,동작구 사당동 141-175,월세,원룸,1000,45,2,7.0,"['총신대입구(이수)역', '남성역', '사당역']",19770311,2024-03-06,37.4870037924317,126.979598888106
40063573,미등록 건물명,거제시 장평동 95-30,월세,원룸,100,33,5,13.0,없음,20080325,2024-03-11,34.8904460163388,128.611983700113
40063575,미등록 건물명,강남구 역삼동 657-32,월세,원룸,1000,95,10,8.5,"['언주역', '역삼역', '선정릉역']",2000-11-02 ,2024-03-14,37.5065627195858,127.036889783041
40063576,미등록 건물명,강서구 화곡동 392-33,전세,빌라,16000,0,5,8.9,"['까치산역', '신정역', '화곡역']",20210713,2024-03-05,37.5330375535924,126.849057600345
40063578,미등록 건물명,유성구 반석동 629-5,월세,원룸,300,40,3,7.0,"['반석(칠성대)역', '지족(침신대)역']",2012.10.30,2024-03-22,36.39279831966604,127.31265376607102
40063592,고척동헤리움더원,구로구 고척동 76-14,전세,오피스텔,16000,0,8,6.0,"['구일역', '개봉역', '양천구청역']",20211227,2024-03-05,37.4996042735291,126.86471841809382
40063595,미등록 건물명,유성구 장대동 356-7,월세,원룸,500,60,4.5,10.0,"['구암역', '유성온천(충남대·목원대)역', '현충원(한밭대)역']",2023-04-05,2024-03-22,36.3607324077295,127.336639649062
40063602,미등록 건물명,강북구 미아동 162-32,월세,원룸,300,34,6,7.0,"['수유역', '화계역', '미아역']",19931109,2024-03-19,37.6331808958177,127.025104410506
40063609,미등록 건물명,남구 신정동 176-4,월세,원룸,50,16,9,7.0,없음,1993.07.29 ,2024-03-10,35.5415478464768,129.312064426911
40063617,미등록 건물명,강북구 미아동 793-53,전세,원룸,1500,0,0,7.0,"['삼양역', '화계역', '미아역']",92-10.14,2024-03-19,37.6280240320303,127.018681891087
40063618,미등록 건물명,남동구 구월동 1150-9,월세,빌라,100,60,7,11.2,"['예술회관역', '인천터미널역', '석천사거리역']",1994년 10월 27일,2024-03-13,37.4482057299752,126.706508851561
40063620,미등록 건물명,성북구 삼선동4가 285,월세,원룸,3000,50,5,6.0,"['성신여대입구역', '한성대입구역', '보문역']",2016-12-08,2024-07-12,37.5900875013029,127.013465150603
40063624,미등록 건물명,천안시 서북구 두정동 1223-2,월세,원룸,70,43,9,12.0,['두정역'],2008년7월8일,2024-03-09,36.834363779197375,127.13967472332554
40063625,미등록 건물명,오산시 궐동 686-4,월세,원룸,60,38,7,6.0,없음,20111221,2024-03-05,37.1576327832569,127.053631197425
40063626,미등록 건물명,경기도 안산시 상록구 본오동,월세,빌라,300,52,1,12.1,['상록수역'],199906,2024-03-14,37.3016900894745,126.870890289515
40063630,미등록 건물명,용산구 청파동3가 118-133,월세,빌라,5000,150,7,8.5,"['남영역', '숙대입구역', '효창공원앞역']",20230802,2024-03-30,37.5430136669414,126.967068289018
40063632,미등록 건물명,남구 달동 643-25,월세,원룸,300,29,9,10.0,없음,2003.01.02,2024-03-19,35.5368958016577,129.319125376094
40063634,미등록 건물명,연제구 거제동 676-67,월세,빌라,2000,65,10,8.8,"['거제해맞이역', '시청역', '양정역']",2023.04.18,2024-08-12,35.1800917416335,129.067202107938
40063643,미등록 건물명,양주시 옥정동 985-5,월세,원룸,500,55,7,8.0,없음,20230322,2024-03-11,37.8379143937767,127.094102458851
40063644,미등록 건물명,중구 유천동 135-1,월세,원룸,3000,40,2,15.0,"['서대전네거리역', '오룡역']",20170828,2024-06-14,36.3179758012646,127.402714049795
40063651,미등록 건물명,천안시 서북구 성정동 689-25,월세,빌라,500,70,15,15.0,['천안역'],20170120,2024-03-07,36.8190193804579,127.142686659925
40063653,미등록 건물명,전라북도 완주군 삼례읍,월세,원룸,300,28,5,9.0,없음,20170323,2024-03-19,35.9064853359848,127.072843340062
40063657,미등록 건물명,서울시 성북구 종암동,월세,빌라,2000,96,9,10.0,"['월곡역', '고려대역', '길음역']",2012-10-25 ,2024-06-18,37.5973280842391,127.036066587115
40063659,미등록 건물명,송파구 잠실동 318-12,월세,빌라,15000,60,10,15.2,"['삼전역', '잠실새내역', '종합운동장역']",2007.12.07.,2024-03-29,37.50443185503008,127.08250600969949
40063666,미등록 건물명,포항시 북구 죽도동 210-11,월세,원룸,200,16,9,9.0,없음,2010.12,2024-03-05,36.028056658165,129.357966725559
40063668,미등록 건물명,천안시 서북구 성정동 1278,월세,빌라,500,45,7,9.4,['두정역'],2012.12.12,2024-03-06,36.8293073874712,127.138449528499
40063671,미등록 건물명,천안시 서북구 성정동 1064-1,월세,빌라,3000,90,8,21.0,없음,2023.1.19,2024-03-06,36.817848230056,127.131734807214
40063672,미등록 건물명,유성구 구암동 630-21,월세,원룸,300,35,3,8.0,"['구암역', '현충원(한밭대)역', '유성온천(충남대·목원대)역']",20020404,2024-03-25,36.3509222401148,127.328502090658
40063674,용산리브,용산구 문배동 10-3,전세,오피스텔,40000,0,25,14.0,"['삼각지역', '남영역', '숙대입구역']",2017년 2월,2024-03-05,37.5375900268555,126.970520019531
40063678,위드필타워,창원시 성산구 상남동 73-2,월세,오피스텔,2000,110,18,19.0,없음,2016년07월27일,2024-03-08,35.2209930419922,128.679916381836
40063680,미등록 건물명,구리시 갈매동 552-12,월세,원룸,500,70,13,9.0,"['갈매역', '별내역']",20220901,2024-03-08,37.6352220255008,127.12485645911
40063685,미등록 건물명,서구 괴정동 46-6,월세,원룸,300,38,1.5,12.0,"['탄방역', '용문역', '시청역']",2012.07.24,2024-03-14,36.339565575974,127.38575048925
40063689,미등록 건물명,전라북도 전주시 완산구 효자동3가,월세,빌라,500,41,9,18.0,없음,2006.10.12,2024-03-10,35.8358771349296,127.102378574983
40063691,미등록 건물명,구로구 구로동 1132-42,월세,원룸,50,50,10,6.0,"['구로디지털단지역', '남구로역', '가산디지털단지역']",20100428,2024-03-15,37.4803799440573,126.897289372015
40063692,미등록 건물명,성남시 분당구 야탑동 297-3,월세,원룸,1000,70,5,9.0,['야탑역'],19970526,2024-03-28,37.4111186761595,127.134785124571
40063693,미등록 건물명,천안시 서북구 두정동 1384,월세,빌라,1000,40,12,9.0,['두정역'],20120927,2024-03-07,36.830820156455,127.140760665004
40063702,미등록 건물명,수원시 팔달구 매교동 30-25,월세,원룸,1000,68,9,10.0,"['매교역', '수원역']",20170210,2024-08-05,37.2697340669952,127.015396139117
40063705,미등록 건물명,포항시 북구 죽도동 210-11,월세,원룸,200,16,9,8.0,없음,2010.12.17,2024-03-07,36.028056658165,129.357966725559
40063707,미등록 건물명,전라북도 전주시 완산구 평화동2가,월세,원룸,200,23,5,7.0,없음,20100818,2024-03-18,35.7941947824305,127.128745852403
40063708,미등록 건물명,미추홀구 주안동 1568-7,월세,빌라,100,65,2,12.3,"['예술회관역', '석바위시장역', '인천터미널역']",19930220,2024-03-13,37.4498365725257,126.691962256752
40063710,미등록 건물명,고양시 덕양구 행신동 911-4,월세,원룸,300,35,2,8.0,['화정역'],2000.01.28,2024-03-12,37.6263593280094,126.844250747637
40063712,더실크,영등포구 당산동 121-132,월세,오피스텔,1000,65,9,6.2,"['영등포시장역', '국회의사당역', '당산역']",2013-03-07 ,2024-03-07,37.5264511108398,126.908493041992
40063713,미등록 건물명,중구 대흥동 508-36,월세,원룸,1000,55,2,12.1,"['중구청역', '중앙로역', '서대전네거리역']",2022-4-22,2024-08-21,36.324052889675,127.421842232825
40063714,미등록 건물명,동작구 상도동 242-94,월세,원룸,1000,45,8,6.0,"['신대방삼거리역', '장승배기역', '서울지방병무청역']",2018-03-08,2024-07-16,37.5006540299334,126.934138861086
40063715,스마일투,의왕시 포일동 660-2,월세,오피스텔,1000,70,8,8.3,['인덕원역'],20150612,2024-03-15,37.395755767822266,126.98565673828124
40063716,미등록 건물명,금천구 가산동 142-62,월세,빌라,1000,80,10,9.8,"['가산디지털단지역', '남구로역', '구로디지털단지역']",2021-05-27,2024-03-05,37.4786650544558,126.892232060812
40063717,미등록 건물명,송파구 잠실동 213-14,월세,빌라,5000,90,5,13.0,"['잠실새내역', '삼전역', '종합운동장역']",2002-05-08,2024-03-09,37.5077434756343,127.083945474944
40063718,미등록 건물명,강북구 수유동 170-25,월세,원룸,300,40,8,6.0,"['수유역', '가오리역', '쌍문역']",20160908,2024-03-06,37.64367232049679,127.0259563841581
40063722,미등록 건물명,군포시 도마교동 463-2,전세,원룸,8000,0,5,7.0,['대야미역'],20180321,2024-03-06,37.318215432556,126.924600884825
40063726,미등록 건물명,청주시 청원구 율량동 1011-2,월세,원룸,200,26,9,9.0,없음,2008 03. 26,2024-03-13,36.6651694132341,127.491656306801
40063734,미등록 건물명,경상북도 경주시 동천동,월세,원룸,300,38,5,11.0,없음,"2016,05,02",2024-03-07,35.8468742977529,129.233360833781
40063738,미등록 건물명,아산시 둔포면 337-204,월세,원룸,200,35,3,7.0,없음,20310930,2024-04-05,36.9324075477533,127.055952041639
40063745,미등록 건물명,관악구 신림동 441-131,월세,원룸,1000,45,7,6.0,"['신림역', '당곡역', '신대방역']",2023.04.28,2024-06-21,37.4823273402512,126.922106622843
40063747,미등록 건물명,증평군 증평읍 847,월세,원룸,500,47,8,10.0,없음,20200207,2024-04-01,36.7947979691665,127.584701043668
40063753,명지대방디엠시티센텀오션2,강서구 명지동 3432-3,전세,오피스텔,15000,0,17,10.7,없음,2021.04.12,2024-03-18,35.0929719,128.9116
40063755,미등록 건물명,용산구 효창동 2-48,월세,원룸,1000,75,7,7.0,"['효창공원앞역', '남영역', '숙대입구역']",2018.12,2024-03-11,37.54287019812549,126.96359145874511
40063758,미등록 건물명,강남구 논현동 109-6,월세,빌라,2000,120,10,16.6,"['강남구청역', '학동역', '압구정로데오역']",20020204,2024-03-05,37.5185068957722,127.038537337023
40063766,미등록 건물명,달성군 현풍읍 255,월세,원룸,300,25,10,8.0,없음,20150512,2024-04-03,35.6952660560888,128.447174192607
40063770,노빌리안1,남동구 구월동 1462-2,월세,오피스텔,150,60,9,11.7,"['예술회관역', '인천터미널역', '문학경기장역']",2003년 3월 3일,2024-03-10,37.44475173950195,126.7026596069336
40063771,미등록 건물명,관악구 봉천동 196-165,월세,원룸,50,41,9,7.0,"['낙성대역', '서울대입구역']",2002-04-24 ,2024-04-05,37.4729730453368,126.962476700681
40063775,미등록 건물명,남구 삼산동 214-1,월세,원룸,300,31,9,9.0,['태화강역'],20110315,2024-03-11,35.5413028037415,129.349607777338
40063779,미등록 건물명,경산시 정평동 175-18,월세,원룸,200,30,5,10.0,"['정평역', '사월역', '임당역']",170404,2024-03-05,35.8373984060344,128.726227481871
40063780,미등록 건물명,미추홀구 문학동 162-6,월세,원룸,40,30,10,7.5,없음,20010904,2024-03-11,37.4365166763714,126.678538643796
40063781,미등록 건물명,서구 월평동 1231,월세,원룸,200,30,3.5,6.0,"['갑천역', '월평(한국과학기술원)역', '유성온천(충남대·목원대)역']",19990331,2024-04-04,36.3537967897753,127.357186159975
40063783,그린힐,금천구 독산동 950-5,월세,오피스텔,14400,10,9,8.5,"['구로디지털단지역', '신대방역']",20120621,2024-03-12,37.4794235229492,126.904472351074
40063785,더라움펜트하우스,광진구 자양동 2-3,월세,오피스텔,1000,500,40,22.0,"['건대입구역', '뚝섬유원지역', '어린이대공원역']",2022.05.25,2024-03-29,37.5386112,127.069416
40063788,미등록 건물명,군포시 당동 792-5,전세,빌라,5000,0,0,12.1,"['군포역', '당정역', '산본역']",19870617,2024-03-09,37.3494933710958,126.941999234128
40063789,미등록 건물명,남동구 간석동 27-18,월세,빌라,100,50,1,13.2,"['석천사거리역', '모래내시장역', '간석오거리역']",19890825,2024-03-13,37.4622826545728,126.715684518013
40063798,미등록 건물명,남동구 간석동 243-6,월세,원룸,40,39,9,7.0,"['간석오거리역', '동암역', '인천시청역']",2019-04-18,2024-03-25,37.4666184887733,126.705675004433
40063811,미등록 건물명,남구 신정동 1824-13,월세,원룸,300,35,10,10.0,없음,20160728,2024-04-12,35.5298478739745,129.310495969857
40063813,미등록 건물명,동구 방어동 1142-10,월세,빌라,1000,50,5,15.0,없음,2011-02-21,2024-04-05,35.4824004849004,129.41742717821
40063815,미등록 건물명,금천구 독산동 331-56,전세,빌라,23000,0,7,8.6,"['독산역', '금천구청역']",20220119,2024-07-22,37.4674853634606,126.893068333501
40063817,미등록 건물명,전라북도 전주시 완산구 효자동3가,월세,원룸,500,40,5,9.0,없음,20221007,2024-03-14,35.8237949761126,127.100097993056
40063819,미등록 건물명,강동구 성내동 411-28,월세,빌라,23000,25,5,9.1,"['둔촌동역', '강동역', '길동역']",20160912,2024-04-08,37.5302726199187,127.135360257619
40063823,미등록 건물명,남동구 간석동 174-26,월세,원룸,30,23,10,6.5,"['간석오거리역', '석천사거리역', '동암역']",19891209,2024-03-25,37.4648828478864,126.710845759745
40063826,헤렌어반,영등포구 영등포동1가 144,월세,오피스텔,2000,50,8,6.0,"['신길역', '영등포역', '영등포시장역']",2011-11-10 ,2024-07-16,37.51724624633789,126.9135284423828
40063827,중앙역퀸즈w테라스에디션,중구 대창동1가 47,월세,오피스텔,500,60,8,8.5,"['중앙역', '부산역', '남포역']",2019.10.01,2024-08-17,35.1064478503548,129.0357664737
40063831,미등록 건물명,북구 학정동 937-8,월세,빌라,500,45,15,18.0,"['학정역', '팔거(국립농관원.통계청)역', '칠곡경대병원역']",20110310,2024-03-28,35.9504001644168,128.567166648574
40063837,미등록 건물명,중구 운남동 1535-5,월세,원룸,150,28,7,7.0,없음,2016-12-09,2024-03-17,37.4927598055572,126.530724751133
40063839,미등록 건물명,서울시 종로구 명륜1가,월세,원룸,1000,80,3,9.0,"['혜화역', '한성대입구역']",19931014,2024-03-05,37.5883732909529,126.997369711996
40063843,미등록 건물명,경기도 수원시 권선구 곡반정동,월세,원룸,300,32,5,6.5,['매탄권선역'],2007.06.15,2024-03-19,37.24383163452149,127.03402709960938
40063845,화서역파크푸르지오,수원시 장안구 정자동 950,전세,오피스텔,30000,0,25,17.8,['화서역'],2021.08.23,2024-03-06,37.2885829,126.995703
40063847,행복드림,동래구 온천동 480-22,전세,오피스텔,6000,0,10,6.3,"['명륜역', '동래역', '온천장역']",20170907,2024-03-25,35.2136517217997,129.078091593407
40063850,미등록 건물명,서울시 성동구 사근동,월세,원룸,1000,50,7,6.0,"['용답역', '한양대역', '마장역']",1988-08,2024-04-05,37.5605267761201,127.045998018976
40063855,미등록 건물명,서울시 종로구 명륜1가,월세,원룸,1000,55,5,7.0,"['한성대입구역', '혜화역']",20020909,2024-03-11,37.5887562234167,126.99789958578
40063856,미등록 건물명,중랑구 면목동 542-22,월세,빌라,20700,19,5,8.8,"['면목역', '사가정역', '상봉역']",2020-02-06,2024-03-07,37.586573945242,127.084416606856
40063861,미등록 건물명,금천구 독산동 299-40,월세,원룸,3000,30,8,6.0,"['독산역', '가산디지털단지역']",2011.11.08,2024-03-05,37.4719797920022,126.894380402324
40063862,미등록 건물명,미추홀구 숭의동 5-87,매매,빌라,0,14.9,"['제물포역', '도화역']",20.12.30,2024-03-13,37.4624801766693,126.661341967818
40063864,미등록 건물명,서구 쌍촌동 1316,월세,빌라,300,42,5,15.0,['운천(호남대입구)역'],20081008,2024-03-06,35.16157257028,126.857141046327
40063866,미등록 건물명,오산시 원동 787-15,월세,원룸,100,41,7,5.0,['오산역'],2015.12.15,2024-07-13,37.1429546419355,127.07283715794236
40063878,미등록 건물명,김해시 내동 129-15,월세,원룸,300,40,5,12.0,"['연지공원역', '박물관역']",20180815,2024-03-09,35.2458486362752,128.865364010654
40063883,미등록 건물명,서울시 마포구 상수동,월세,빌라,3000,80,0,11.0,"['상수역', '광흥창역', '합정역']",19861129,2024-03-07,37.5487947599698,126.924228236536
40063886,미등록 건물명,천안시 서북구 두정동 994,월세,원룸,100,24,6,8.0,['두정역'],20030425,2024-03-09,36.835509089913,127.134911053041
40063888,미등록 건물명,미추홀구 용현동 116-51,월세,빌라,100,45,0,8.6,"['도화역', '제물포역']",19900702,2024-03-24,37.4559971653377,126.663776328275
40063907,벨라지움,안산시 단원구 고잔동 527-1,월세,오피스텔,400,40,8,6.6,"['중앙역', '고잔역']",20031031,2024-03-29,37.32075881958008,126.8320541381836
40063909,미등록 건물명,경기도 안산시 상록구 이동,월세,빌라,500,42,3,14.0,"['한대앞역', '상록수역']",1996.12,2024-03-16,37.3117750804614,126.860469872195
40063919,미등록 건물명,강남구 역삼동 799-2,월세,빌라,2000,120,10,15.1,"['양재역', '역삼역', '매봉역']",20010710,2024-03-06,37.4917075780293,127.037119598632
40063931,상무대라수,서구 치평동 1230,월세,오피스텔,500,50,8,6.2,"['운천(호남대입구)역', '상무역', '김대중컨벤션센터(마륵)역']",20230601,2024-03-31,35.15365055597191,126.8520587167659
40063933,미등록 건물명,중구 운서동 2891-9,월세,원룸,300,29,7,6.0,없음,20141117,2024-03-07,37.485527732262,126.5100568387
40063936,미등록 건물명,평택시 독곡동 396-1,월세,빌라,1000,55,6,20.8,['송탄역'],1989.01.20,2024-03-09,37.0867797787115,127.058267188236
40063943,미등록 건물명,경기도 김포시 마산동,월세,원룸,300,25,20,10.0,"['마산역', '구래역']",2017-06-23,2024-08-02,37.6425398828949,126.642209144125
40063946,미등록 건물명,달성군 유가읍 573-2,월세,원룸,500,45,10,12.0,없음,2017.11.30,2024-03-06,35.6992795906016,128.458646603826
40063949,미등록 건물명,남구 달동 637-3,월세,원룸,500,41,9,8.8,없음,20090305,2024-05-01,35.538925589595,129.317613993328
40063957,미등록 건물명,은평구 갈현동 515-4,전세,빌라,23000,0,3,24.8,"['연신내역', '구산역']",20001018,2024-03-07,37.6176052231056,126.913717806847
40063958,태건강남헤븐리치더써밋761,강남구 역삼동 605-17,월세,오피스텔,2000,90,0,4.5,"['언주역', '신논현역', '역삼역']",2021.04.23,2024-03-07,37.5066978206808,127.03278082363512
40063959,미등록 건물명,관악구 신림동 535-15,월세,빌라,5000,90,10,17.0,"['신대방역', '구로디지털단지역', '보라매공원역']",20100708,2024-03-05,37.484677256734,126.911122374274
40063963,미등록 건물명,전라북도 익산시 영등동,월세,원룸,100,20,5,9.0,없음,2002.12.27,2024-03-06,35.9638806091941,126.971779656975
40063964,미등록 건물명,춘천시 운교동 118-4,월세,원룸,500,45,5,7.0,['춘천역'],1995년 5월 4일,2024-03-06,37.8775135160594,127.730982536522
40063965,미등록 건물명,아산시 온천동 2988,월세,원룸,300,40,9,10.0,['온양온천역'],2013-06-12,2024-03-12,36.7757664403589,127.009850640237
40063969,상암미르웰한올림,마포구 성산동 593-5,월세,오피스텔,10000,35,6,5.0,"['마포구청역', '월드컵경기장역', '가좌역']",2018년5월10일,2024-03-13,37.5649909973145,126.904563903809
40063974,에코에비뉴,제주시 노형동 710-2,전세,오피스텔,13000,0,8,10.9,없음,2017-01-26,2024-03-06,33.48240661621094,126.48356628417967
40063979,미등록 건물명,경상남도 김해시 대청동,월세,빌라,500,42,5,15.0,없음,23013,2024-04-05,35.18919925061426,128.7944988235029
40063980,미등록 건물명,천안시 서북구 두정동 1203,월세,원룸,500,35,8,12.0,['두정역'],200081118,2024-04-08,36.8367167870253,127.1387957227
40063983,미등록 건물명,동구 방어동 1019-4,월세,빌라,300,50,5,18.0,없음,2014-12-26,2024-03-13,35.4797711671174,129.412925893785
40063987,미등록 건물명,경기도 시흥시 정왕동,월세,빌라,500,45,3,14.0,"['정왕역', '오이도역']",2002.05.01,2024-03-07,37.3495507753531,126.74385410547092
40063989,미등록 건물명,강동구 성내동 111-15,월세,원룸,500,43,0,4.0,"['강동구청역', '천호역', '강동역']",2016.01.12,2024-03-19,37.5340838334469,127.122590020077
40063990,미등록 건물명,서구 불로동 775-11,월세,원룸,300,25,10,9.0,없음,20160909,2024-04-01,37.6143027151206,126.684756339318
40063994,미등록 건물명,송파구 송파동 109-12,월세,빌라,10000,41,5,12.3,"['석촌역', '송파역', '송파나루역']",2006.6.12,2024-03-05,37.5048133922631,127.111707580954
40064000,미등록 건물명,미추홀구 용현동 39-59,월세,빌라,100,60,1,6.6,['인하대역'],19910204,2024-03-24,37.4485307929896,126.665244090015
40064002,미등록 건물명,서울시 동대문구 휘경동,월세,원룸,500,60,10,6.0,"['회기역', '외대앞역']",20120806,2024-03-06,37.5906928613789,127.057733389643
40064003,미등록 건물명,송파구 풍납동 277-6,월세,빌라,10000,60,9,16.0,"['강동구청역', '천호역']","2002,8,30",2024-03-09,37.531966039261,127.114131878615
40064011,미등록 건물명,남구 삼산동 201-15,월세,원룸,500,37,10,10.0,['태화강역'],20140527,2024-03-31,35.5424268530499,129.349432987808
40064016,다성이즈빌(166-76),강동구 천호동 166-76,전세,오피스텔,24000,0,8,8.0,"['강동역', '천호역', '길동역']",2021.11.24,2024-03-29,37.5390398310651,127.131264175725
40064023,리치팰리스,영등포구 영등포동2가 94-307,전세,오피스텔,24500,0,8,6.4,"['영등포시장역', '신길역', '영등포역']",2021-12-29 ,2024-03-08,37.5212636003944,126.911761570989
40064027,미등록 건물명,오산시 원동 787-15,월세,원룸,100,41,7,6.0,['오산역'],2015.12.15,2024-03-06,37.1429548211669,127.072838733896
40064029,미등록 건물명,부천시 원미구 심곡동 422-4,월세,원룸,200,36,6,5.0,"['부천역', '중동역', '신중동역']",2017.08.18,2024-08-02,37.4896163856168,126.780493722112
40064035,시티앤플랫폼,강북구 수유동 229-18,월세,오피스텔,1000,85,8.5,4.9,"['수유역', '화계역', '가오리역']",2023-05-19 ,2024-03-31,37.6377136,127.023704
40064037,미등록 건물명,동구 용전동 165-12,월세,빌라,300,45,2,16.0,없음,20110211,2024-03-17,36.3535582169617,127.43067402863822
40064038,미등록 건물명,평택시 서정동 48,월세,빌라,500,80,8,18.0,['송탄역'],20170512,2024-03-20,37.0725071003691,127.058262226799
40064041,미등록 건물명,서구 괴정동 66-18,전세,원룸,10000,0,3.5,10.0,"['탄방역', '용문역', '시청역']",2023.11.06,2024-04-03,36.3390708595997,127.381840690462
40064043,미등록 건물명,제주시 용담일동 262-1,월세,원룸,300,53,7,15.0,없음,2017-01-23,2024-03-11,33.50624573797872,126.5124946384536
40064045,미등록 건물명,안산시 상록구 부곡동 664-1,매매,빌라,1,18.1,없음,2002.10.31,2024-03-05,37.333414452062,126.862156301098
40064046,미등록 건물명,미추홀구 용현동 116-51,월세,빌라,100,45,0,8.6,"['도화역', '제물포역']",19900702,2024-04-03,37.4559971653377,126.663776328275
40064047,우리하우스,천안시 서북구 성정동 1312-1,월세,오피스텔,500,35,6,5.8,['두정역'],20120223,2024-03-28,36.8289074265276,127.140565255949
40064049,토미,부천시 소사구 심곡본동 535-13,월세,오피스텔,50,45,6,6.2,"['부천역', '중동역']",20090226,2024-03-18,37.48396,126.7781
40064052,미등록 건물명,경기도 수원시 권선구 곡반정동,월세,원룸,500,40,6,8.0,['세류역'],2007.03.22,2024-03-09,37.239389611775216,127.0296578979458
40064054,미등록 건물명,안산시 상록구 사동 1246-12,월세,빌라,1000,32,3,11.0,"['상록수역', '한대앞역', '사리역']",19951115,2024-03-07,37.3015671744338,126.857004821509
40064055,미등록 건물명,청주시 흥덕구 비하동 37-1,월세,원룸,300,30,10,5.0,없음,2019.3.7,2024-03-23,36.6283845774987,127.424872717896
40064064,미등록 건물명,대구시 달서구 상인동,월세,빌라,500,35,0,16.0,"['월촌역', '상인역', '월배역']",19931217,2024-03-30,35.817215589279,128.546047827424
40064069,미등록 건물명,영등포구 당산동4가 32-80,전세,원룸,9000,0,8,7.0,"['영등포구청역', '당산역', '영등포시장역']",2011-03-29,2024-08-02,37.5284696410026,126.899163127773
40064070,상무대라수,서구 치평동 1230,월세,오피스텔,500,55,8,7.7,"['운천(호남대입구)역', '상무역', '김대중컨벤션센터(마륵)역']",20230601,2024-03-30,35.15365055597191,126.8520587167659
40064074,미등록 건물명,북구 호계동 284-11,월세,원룸,300,30,13,15.0,없음,20071119,2024-04-22,35.6291891662887,129.355663706105
40064076,미등록 건물명,서구 쌍촌동 1351,월세,빌라,200,35,5,10.0,"['쌍촌역', '운천(호남대입구)역', '화정역']",20060814,2024-03-11,35.1591510461173,126.863772020804
40064078,미등록 건물명,대구시 달서구 상인동,월세,빌라,500,35,0,17.0,['상인역'],19950919,2024-03-05,35.8101105526688,128.549018493102
40064080,미등록 건물명,남동구 만수동 840-1,월세,빌라,150,85,6,14.1,"['모래내시장역', '만수역']",2011-01-13,2024-08-14,37.4643964996119,126.726015994974
40064084,미등록 건물명,중랑구 면목동 180-68,월세,빌라,10000,77,10,8.9,"['중랑역', '면목역', '상봉역']",2021-12-17 ,2024-03-06,37.5905006635292,127.078522852819
40064090,미등록 건물명,남동구 간석동 85-12,월세,빌라,100,60,1,10.9,"['간석오거리역', '동암역', '부평삼거리역']",19891229,2024-04-04,37.4687803109311,126.712162837515
40064092,미등록 건물명,김해시 내동 1075-10,월세,원룸,300,36,7,13.0,"['박물관역', '연지공원역', '수로왕릉(김해터미널)역']",20131126,2024-03-06,35.242771148681655,128.8663787841804
40064095,미등록 건물명,금천구 가산동 146-74,월세,원룸,300,38,7,5.0,"['가산디지털단지역', '남구로역', '구로디지털단지역']",19731112,2024-03-06,37.4779849018074,126.893445228106
40064105,미등록 건물명,화성시 향남읍 215,월세,원룸,500,40,5,7.0,없음,20140718,2024-03-18,37.137752838584,126.911684130366
40064107,미등록 건물명,경기도 시흥시 정왕동,월세,원룸,50,26,4,7.0,['능길역'],20010915,2024-03-06,37.3406513030049,126.753556590431
40064108,미등록 건물명,금천구 독산동 148-10,월세,원룸,100,23,7,5.0,"['독산역', '가산디지털단지역', '구로디지털단지역']",19750305,2024-03-06,37.4735875680182,126.895205664212
40064114,인계드림힐스,수원시 팔달구 인계동 1023-2,월세,오피스텔,1000,110,9,13.6,"['수원시청역', '매교역']",2023.06.30,2024-08-05,37.2664518058321,127.028668621761
40064116,미등록 건물명,남양주시 화도읍 557-8,월세,빌라,500,50,3,11.0,"['마석역', '천마산역']",2008년6월,2024-03-09,37.65632356714676,127.30076763518228
40064120,미등록 건물명,경기도 수원시 권선구 곡반정동,전세,원룸,6000,0,8,8.5,없음,2006.10.31,2024-03-18,37.24096765419753,127.0319260695444
40064126,미등록 건물명,마포구 합정동 389-11,전세,빌라,26000,0,5,8.5,"['합정역', '망원역', '상수역']",2014.04.30,2024-03-15,37.5511088223967,126.910138215703
40064131,위례우남역KCC웰츠타워,성남시 수정구 창곡동 562-1,월세,오피스텔,3000,130,15,12.6,"['남위례역', '산성역', '복정역']",2018.01.23,2024-03-09,37.4653329,127.140053
40064137,가산미소지움,금천구 가산동 550-17,월세,오피스텔,500,55,8,4.8,"['가산디지털단지역', '철산역', '남구로역']",2017.1.17,2024-03-06,37.4762382507324,126.878707885742
40064139,미등록 건물명,남양주시 평내동 583-9,월세,원룸,500,35,2.5,10.5,['평내호평역'],20070928,2024-03-08,37.6475835091194,127.236294177549
40064143,미등록 건물명,청주시 청원구 오창읍 773-9,월세,원룸,100,20,5,7.0,없음,20140901,2024-03-12,36.72037467309704,127.42669987861034
40064145,미등록 건물명,미추홀구 주안동 688-12,월세,빌라,100,68,0,11.3,"['시민공원(문화창작지대)역', '도화역']",19901024,2024-03-13,37.4542344326465,126.667278689893
40064147,미등록 건물명,남동구 간석동 27-18,월세,빌라,100,50,0,13.2,"['석천사거리역', '모래내시장역', '간석오거리역']",19890825,2024-03-24,37.4622826545728,126.715684518013
40064149,미등록 건물명,서구 당하동 1026-7,월세,빌라,500,45,10,12.8,없음,20110812,2024-06-14,37.5916696149524,126.692044738119
40064158,미등록 건물명,남동구 구월동 1094,월세,원룸,500,35,8,9.0,"['예술회관역', '인천시청역', '석바위시장역']",20021202,2024-04-04,37.4530997807846,126.698468349953
40064166,미등록 건물명,경기도 김포시 마산동,월세,빌라,3000,50,20,24.0,"['마산역', '구래역']",2017-02-24,2024-08-02,37.6414596700804,126.64133939802
40064167,미등록 건물명,전라북도 전주시 덕진구 송천동2가,월세,빌라,1000,50,5,20.0,없음,20140808,2024-03-12,35.8653098766761,127.127970571877
40064170,미등록 건물명,강남구 대치동 957-11,월세,빌라,3000,120,10,13.0,"['삼성역', '선릉역', '삼성중앙역']",1997년 4월 11일,2024-03-16,37.5054466011768,127.058252169176
40064182,미등록 건물명,구미시 상모동 299,월세,원룸,300,32,10,9.0,없음,20150225,2024-03-29,36.0879092145142,128.353334257659
40064190,미등록 건물명,서산시 석남동 45-5,월세,원룸,500,35,0,7.0,없음,20170926,2024-04-05,36.77038832150362,126.45621248152533
40064192,강남역두산위브센티움,강남구 역삼동 823-26,월세,오피스텔,110,110,10,9.0,"['역삼역', '강남역', '신논현역']",2004-05-21 ,2024-03-06,37.498653411865234,127.03292846679688
40064194,미등록 건물명,평택시 동삭동,월세,빌라,500,80,30,21.0,['평택지제역'],20230824,2024-07-24,37.017250478211,127.086447515351
40064196,YPARK2차,광진구 자양동 680-11,월세,오피스텔,3000,80,10,4.7,"['구의역', '강변역', '건대입구역']",20210622,2024-03-06,37.5361139589436,127.084596051564
40064199,미등록 건물명,남구 달동 626-11,월세,원룸,300,28,9,8.0,없음,2001.08.10,2024-03-05,35.5368642611718,129.322326681384
40064202,미등록 건물명,서울시 동대문구 휘경동,전세,원룸,8000,0,7,6.0,"['회기역', '청량리역', '외대앞역']",20111208,2024-06-18,37.5867437777674,127.055741730883
40064206,미등록 건물명,남구 삼산동 202-16,월세,원룸,300,28,10,10.0,['태화강역'],20120206,2024-03-16,35.5424389102381,129.348929958191
40064211,미등록 건물명,전라북도 전주시 완산구 서완산동2가,월세,빌라,500,45,10,15.0,없음,20180703,2024-03-26,35.8109558863307,127.133248857136
40064212,미등록 건물명,오산시 궐동 686-4,월세,원룸,300,30,8,7.0,없음,2011년 12월21일,2024-08-12,37.1576327832569,127.053631197425
40064213,미등록 건물명,서구 불로동 795-5,월세,원룸,300,30,10,10.6,없음,2013.12.6,2024-03-08,37.6120685548061,126.686825379233
40064216,미등록 건물명,평택시 용이동 582-10,월세,원룸,300,25,20,5.2,없음,20160311,2024-03-05,37.0032053799476,127.133636028924
40064219,미등록 건물명,춘천시 동내면 980-8,월세,원룸,300,30,6,9.0,없음,2010년 9월 30일 사용승인,2024-03-06,37.8507105371057,127.754306861352
40064221,미등록 건물명,구리시 수택동 460-11,전세,원룸,2500,0,1,10.0,['구리역'],2003.7.30,2024-03-15,37.5947252509372,127.141973985519
40064227,미등록 건물명,남구 삼산동 202-16,월세,원룸,300,28,10,10.0,['태화강역'],20120206,2024-03-20,35.5424389102381,129.348929958191
40064241,미등록 건물명,전라북도 전주시 완산구 효자동3가,월세,원룸,300,25,2,9.0,없음,20111007,2024-03-11,35.8291239775016,127.100380809101
40064243,미등록 건물명,은평구 갈현동 6-23,매매,빌라,5,9.1,"['연신내역', '구파발역']",20160527,2024-08-27,37.6266415972947,126.918423371456
40064244,미등록 건물명,경기도 안산시 상록구 사동,월세,원룸,1000,63,7,8.8,['사리역'],20190227,2024-03-26,37.2956131821666,126.850201302419
40064248,미등록 건물명,아산시 배방읍 1021,월세,빌라,300,41,9,13.0,['배방역'],20110523,2024-03-17,36.7722999099351,127.065778417698
40064249,e편한세상시티한강신도시,김포시 구래동 6882-1,월세,오피스텔,1000,90,13,13.2,"['구래역', '양촌역']",2018.12.13,2024-03-19,37.6446663580082,126.62319073681208
40064264,미등록 건물명,경기도 화성시 남양읍,월세,원룸,300,53,8,7.0,없음,20220504,2024-08-27,37.2088414781508,126.825584484147
40064266,미등록 건물명,구리시 수택동 377-40,월세,빌라,1000,80,5,11.5,['구리역'],2019.11.20,2024-03-06,37.5981544516894,127.137535119781
40064267,미등록 건물명,성남시 분당구 야탑동 321-10,월세,빌라,2000,80,5,15.0,['야탑역'],19961017,2024-04-19,37.4099854554078,127.135187582833
40064270,미등록 건물명,김해시 외동 395,월세,원룸,200,31,8,8.0,"['수로왕릉(김해터미널)역', '봉황(전하)역', '박물관역']",20150401,2024-04-13,35.2296515989486,128.867304038477
40064272,미등록 건물명,송파구 잠실동 239-17,전세,원룸,16500,0,9,9.0,"['삼전역', '잠실새내역', '석촌고분역']",2012.02.13.,2024-03-06,37.5070368840723,127.086353152547
40064273,미등록 건물명,서산시 석남동 45-5,월세,원룸,500,35,0,7.0,없음,20170926,2024-07-17,36.77052123028256,126.4561129761578
40064280,미등록 건물명,경기도 시흥시 정왕동,월세,원룸,100,29,4,7.9,['정왕역'],20001228,2024-03-06,37.3434027399531,126.745162992733
40064281,미등록 건물명,서구 갈마동 274-18,월세,원룸,300,30,1.5,7.0,"['월평(한국과학기술원)역', '갈마역', '갑천역']",20000225,2024-04-05,36.353604973621,127.364453555203
40064282,하남미사롯데캐슬헤븐시티Ⅱ,하남시 망월동 1148,월세,오피스텔,10300,15,6,6.6,['미사역'],2020.1.15,2024-03-14,37.5646831,127.198091
40064287,미등록 건물명,전라북도 전주시 완산구 평화동2가,월세,빌라,500,40,5,17.0,없음,20180116,2024-04-01,35.7883133567696,127.134387658057
40064288,미등록 건물명,전라북도 전주시 완산구 서완산동2가,월세,빌라,500,46,9,15.0,없음,20180703,2024-03-28,35.8109558863307,127.133248857136
40064289,미등록 건물명,김해시 대성동 359-10,월세,원룸,200,27,8,7.0,"['박물관역', '수로왕릉(김해터미널)역', '봉황(전하)역']",20140502,2024-04-05,35.2373641118732,128.878031246498
40064290,미등록 건물명,수원시 팔달구 우만동 124,전세,원룸,8000,0,11,6.7,없음,2017.09.07,2024-05-01,37.2787857712928,127.038302478157
40064292,미등록 건물명,오산시 원동 787-15,월세,원룸,100,41,7,5.0,['오산역'],2015.12.15,2024-07-16,37.1429548211669,127.072838733896
40064294,미등록 건물명,청주시 흥덕구 송절동 773,월세,원룸,300,41,9,7.9,없음,2019.01.09,2024-04-05,36.663345448071,127.452436481382
40064295,서울유니버스텔B동,관악구 봉천동 867-4,월세,오피스텔,1000,60,6,8.0,"['서울대입구역', '봉천역', '낙성대역']",20030821,2024-08-18,37.4800177,126.950731
40064297,아크로타워2,금천구 독산동 1000-5,전세,오피스텔,20000,0,9.5,7.4,"['독산역', '가산디지털단지역']",20220323,2024-03-09,37.4689262697818,126.888784448175
40064299,미등록 건물명,양천구 목동 124-18,전세,빌라,19000,0,10,7.8,"['신목동역', '염창역', '선유도역']",2014년3월18일,2024-07-19,37.5457515609211,126.881254564359
40064315,마리나아일랜드,안산시 단원구 성곡동 845-5,월세,오피스텔,100,30,7.5,5.3,없음,20230605,2024-03-12,37.3014505195672,126.738207893159
40064318,라군센트럴스테이,안산시 단원구 성곡동 839-9,월세,오피스텔,100,30,8.5,5.2,없음,2023.10.20,2024-03-12,37.3032528093541,126.73969752022
40064325,미등록 건물명,천안시 서북구 성정동 1454,월세,원룸,500,35,6,6.0,['두정역'],20120710,2024-03-31,36.8268711540534,127.14150993383
40064326,미등록 건물명,의왕시 청계동 718-3,월세,빌라,5000,150,0,29.9,없음,20061226,2024-03-14,37.3960731111637,127.002194632586
40064331,미등록 건물명,중구 성안동 515-7,월세,원룸,500,40,8,15.0,없음,20171115,2024-03-09,35.5721820970803,129.315026332837
40064333,미등록 건물명,중랑구 면목동 623-8,월세,원룸,1000,42,8,6.1,"['사가정역', '용마산역', '면목역']",2011.11.04.,2024-03-06,37.5785666336556,127.088000571288
40064339,미등록 건물명,청주시 서원구 사창동 231-7,월세,원룸,300,36,9,15.0,없음,20140102,2024-03-09,36.635553718650606,127.46335342574118
40064342,미등록 건물명,서대문구 연희동 353-139,월세,원룸,1000,60,8,9.0,"['홍대입구역', '신촌역', '신촌역']",2016.03.21,2024-03-06,37.5625007635861,126.928317843722
40064350,미등록 건물명,서구 마전동 928-29,월세,빌라,500,42,10,15.0,"['검단사거리역', '마전역']",20070713,2024-03-15,37.6048991779776,126.66044900473
40064352,미등록 건물명,중랑구 묵동 128-76,월세,빌라,5000,65,2,5.6,"['먹골역', '중화역', '태릉입구역']",20141017,2024-03-06,37.6072650740025,127.080608563974
40064357,미등록 건물명,경기도 안산시 상록구 이동,매매,빌라,2,22.1,"['한대앞역', '상록수역']",20151215,2024-03-26,37.3063914665182,126.859385106554
40064362,미등록 건물명,서대문구 대신동 126-34,월세,원룸,1000,58,8.5,6.0,"['신촌역', '이대역', '독립문역']",19970326,2024-07-22,37.5679217648205,126.946455549648
40064365,미등록 건물명,양천구 목동 231-11,월세,빌라,15700,20,4,8.7,"['염창역', '등촌역', '신목동역']",2014.5.12,2024-03-09,37.54228219109187,126.87047100471752
40064369,미등록 건물명,보령시 동대동 1302,월세,원룸,100,25,3,5.0,없음,1995.03.07,2024-03-15,36.347149240237,126.60147910204
40064371,미등록 건물명,경기도 안산시 상록구 사동,전세,원룸,3000,0,3,2.1,['사리역'],20050530,2024-03-19,37.2948356684808,126.851265698604
40064372,미등록 건물명,서구 내방동 842-10,월세,빌라,300,45,5,15.0,"['쌍촌역', '화정역', '운천(호남대입구)역']",20090318,2024-03-08,35.1530027530477,126.869978959478
40064373,미등록 건물명,유성구 장대동 317-6,월세,원룸,200,33,1.5,6.0,"['구암역', '유성온천(충남대·목원대)역']",2002.4.27,2024-03-11,36.3644950616937,127.339671429548
40064384,미등록 건물명,도봉구 창동 624-44,월세,원룸,300,43,7,5.0,"['쌍문역', '수유역', '창동역']",20180116,2024-08-20,37.6451325017845,127.035167124362
40064385,미등록 건물명,중랑구 면목동 152-59,전세,원룸,17000,0,6,5.3,"['면목역', '사가정역', '중랑역']",20210318,2024-03-13,37.5848772910911,127.08106706499
40064392,미등록 건물명,중랑구 상봉동 112-11,월세,빌라,1000,50,0,10.0,"['상봉역', '면목역', '중랑역']",1990,2024-03-12,37.5948040325926,127.084701738363
40064393,미등록 건물명,도봉구 쌍문동 138-12,월세,원룸,200,33,7,6.5,"['쌍문역', '창동역']",20181226,2024-08-26,37.6507098843783,127.032895013499
40064396,미등록 건물명,경기도 안산시 상록구 사동,월세,원룸,1000,55,5,8.8,"['사리역', '상록수역']",20150907,2024-03-25,37.2958533213425,126.854106846498
40064401,미등록 건물명,성북구 정릉동 402-132,매매,빌라,5,15.6,"['북한산보국문역', '정릉역', '솔샘역']",2022.1.20,2024-07-11,37.6096230453594,127.010945567993
40064403,미등록 건물명,전라북도 전주시 완산구 평화동1가,월세,빌라,2000,45,5,20.0,없음,20120423,2024-04-05,35.7963871880659,127.136832914439
40064407,미등록 건물명,달서구 용산동 884-21,월세,빌라,500,40,0,19.0,"['죽전(구병원)역', '용산(서부법원·검찰청입구)역', '감삼역']",19881214,2024-06-04,35.85493580741063,128.53333140688926
40064408,마리나아일랜드,안산시 단원구 성곡동 845-5,월세,오피스텔,100,30,7,5.3,없음,20230605,2024-03-12,37.3014505195672,126.738207893159
40064411,미등록 건물명,제주시 이도이동 2029-19,월세,원룸,200,45,5,10.0,없음,2014년8월25일,2024-03-06,33.4879823057715,126.53375226394
40064412,KH마이우스,동래구 온천동 210-16,월세,오피스텔,500,47,5,9.8,"['온천장역', '명륜역', '부산대역']",20160805,2024-07-16,35.21875,129.081527709961
40064413,미등록 건물명,서구 불로동 795-7,월세,원룸,300,35,10,10.6,없음,2012.9.7,2024-03-08,37.6116077737291,126.686377903852
40064414,미등록 건물명,수원시 팔달구 인계동 1000-9,월세,빌라,1000,67,12,8.4,"['매교역', '수원시청역']",20161129,2024-03-08,37.266139414046,127.023338205311
40064418,미등록 건물명,부평구 부평동 134-5,매매,빌라,8,23.4,"['부평시장역', '부평역', '부개역']",2023-10-21,2024-03-31,37.4959377697439,126.730563452203
40064421,미등록 건물명,오산시 궐동 668-6,월세,원룸,100,40,8,8.0,['오산대역'],20030729,2024-07-10,37.1589038967466,127.05636946614
40064433,미등록 건물명,평택시 서정동 832-17,월세,빌라,300,25,0,12.1,"['송탄역', '서정리역']",19891025,2024-03-05,37.0673826865018,127.056058900449
40064435,미등록 건물명,수원시 권선구 권선동 1167,월세,빌라,7000,78,10,13.0,"['매탄권선역', '수원시청역']",2023.02.08,2024-03-19,37.2564485949668,127.034784531761
40064436,미등록 건물명,광진구 화양동 75-3,전세,원룸,11000,0,9,5.7,"['어린이대공원역', '건대입구역', '성수역']",201607,2024-03-14,37.5458326428208,127.071870670967
40064437,강남역효성해링턴타워더퍼스트,강남구 역삼동 825-24,월세,오피스텔,24700,15,10,6.9,"['강남역', '역삼역', '신논현역']",20140626,2024-03-13,37.4969902038574,127.029769897461
40064445,미등록 건물명,강서구 화곡동 410-101,월세,빌라,300,30,0,12.0,"['까치산역', '화곡역']",19901221,2024-03-06,37.53734085381124,126.84622107163814
40064447,미등록 건물명,구로구 구로동 1130-6,월세,원룸,500,40,0,6.0,"['구로디지털단지역', '남구로역', '대림역']",2008-07-30 ,2024-08-05,37.4814085014632,126.898816217089
40064448,미등록 건물명,달서구 용산동 871-20,전세,빌라,8000,0,15,25.0,"['죽전(구병원)역', '용산(서부법원·검찰청입구)역', '감삼역']",20030909,2024-03-21,35.855881544761,128.532535233003
40064459,미등록 건물명,성북구 성북동 184-13,월세,원룸,1000,140,10,10.0,"['한성대입구역', '혜화역', '성신여대입구역']",20160913,2024-09-04,37.5899730097669,127.005159125221
40064462,스타타워즈,창원시 성산구 상남동 76-1,월세,오피스텔,1000,65,14,17.0,없음,2005년06월29일,2024-03-08,35.222389221191406,128.6811065673828
40064463,마리나아일랜드,안산시 단원구 성곡동 845-5,월세,오피스텔,100,30,7,5.3,없음,20230605,2024-07-17,37.3014505195672,126.738207893159
40064469,미등록 건물명,경기도 시흥시 정왕동,월세,원룸,300,31,9,8.2,['정왕역'],20160701,2024-03-19,37.3424053439553,126.74677699505
40064471,미등록 건물명,수원시 팔달구 인계동 1043-6,월세,원룸,200,45,15,6.0,"['수원시청역', '매교역']",20131010,2024-08-23,37.2639070017734,127.030438395665
40064474,미등록 건물명,은평구 갈현동 436-34,월세,원룸,5000,30,7,6.0,"['연신내역', '구산역', '구파발역']",2018-04-19,2024-03-31,37.6232768696862,126.91637471243
40064476,YPARK2차,광진구 자양동 680-11,월세,오피스텔,5000,120,15,9.8,"['구의역', '강변역', '건대입구역']",20210622,2024-03-06,37.5361139589436,127.084596051564
40064478,미등록 건물명,강남구 역삼동 774-27,전세,빌라,28800,0,10,7.6,"['역삼역', '한티역', '선릉역']",20181002,2024-03-06,37.4968209439828,127.043538109756
40064480,미등록 건물명,관악구 봉천동 886-32,월세,빌라,5000,75,7,12.0,"['서울대입구역', '봉천역', '숭실대입구역']",2016.11.29,2024-03-06,37.4842479406156,126.948855784186
40064483,미등록 건물명,안산시 단원구 신길동 1392-7,월세,원룸,70,28,4,8.0,['능길역'],2005.5.12,2024-03-05,37.3384167977496,126.759046432263
40064484,미등록 건물명,창원시 진해구 용원동 1263-3,월세,원룸,100,25,5,8.0,없음,2011-06-27,2024-03-07,35.0989091616307,128.814646000877
40064487,미등록 건물명,전라북도 전주시 완산구 중화산동2가,월세,빌라,500,41,9,13.0,없음,20170217 ,2024-03-07,35.8176852376217,127.118901706583
40064491,미등록 건물명,서구 원당동 821-5,월세,원룸,50,34,6,7.0,없음,20090917,2024-03-06,37.594971082295,126.693593065996
40064501,미등록 건물명,평택시 평택동 90-13,월세,빌라,300,50,20,6.9,['평택역'],2019.10.22.,2024-08-29,36.9914969627238,127.082359682805
40064503,미등록 건물명,서울시 동대문구 전농동,월세,빌라,4000,70,9.9,11.3,"['청량리역', '신답역', '용두역']",20170914,2024-03-12,37.5783954279063,127.049725516743
40064504,미등록 건물명,강북구 미아동 163-9,월세,원룸,500,36,7,6.0,"['수유역', '미아역', '화계역']",2010-06-16,2024-03-24,37.6333369567189,127.026298554108
40064508,미등록 건물명,강남구 대치동 899-12,월세,빌라,200,130,10,14.9,"['선릉역', '한티역', '선정릉역']",1995-07-26 ,2024-08-08,37.5022325522371,127.051420892061
40064510,미등록 건물명,천안시 서북구 두정동 1302,월세,빌라,6000,7,10.5,13.0,['두정역'],20181213,2024-07-10,36.8328885583166,127.139229695162
40064514,e편한세상시티한강신도시,김포시 구래동 6882-1,전세,오피스텔,10000,0,8,7.2,"['구래역', '양촌역']",20181213,2024-03-09,37.6446663580082,126.62319073681208
40064523,미등록 건물명,서구 탄방동 631-1,월세,원룸,300,47,1.5,12.1,"['탄방역', '시청역', '용문역']",20090930,2024-03-11,36.3444291155573,127.382052989783
40064524,미등록 건물명,영등포구 양평동4가 321-1,월세,원룸,9500,10,3,4.7,"['선유도역', '당산역', '신목동역']",20110823,2024-03-05,37.5383584562563,126.897353596618
40064527,미등록 건물명,평택시 서정동 832-17,월세,빌라,300,25,0,11.8,"['송탄역', '서정리역']",19891025,2024-03-08,37.0673826865018,127.056058900449
40064534,미등록 건물명,서구 월평동 1332,월세,원룸,200,20,1.5,7.0,"['갑천역', '월평(한국과학기술원)역', '유성온천(충남대·목원대)역']",19950304,2024-04-02,36.3530563045093,127.355308569715
40064535,미등록 건물명,도봉구 쌍문동 141-43,월세,원룸,1000,35,5,7.0,"['쌍문역', '창동역']",20080908,2024-03-10,37.6498705046934,127.034245262449
40064538,미등록 건물명,창원시 의창구 봉곡동 171-1,월세,빌라,6000,20,1,15.0,없음,19960513,2024-03-06,35.2495151553171,128.675720569373
40064540,미등록 건물명,경기도 시흥시 정왕동,월세,원룸,80,27,6,9.0,['능길역'],2000,2024-03-05,37.34245066624816,126.75577740648536
40064541,상경,부평구 부평동 222-15,월세,오피스텔,100,50,6,9.7,"['부평시장역', '부평역', '굴포천역']",20030426,2024-05-01,37.4957389831543,126.72726440429688
40064544,미등록 건물명,김해시 전하동 42-6,월세,원룸,300,30,7,10.0,"['봉황(전하)역', '부원역', '수로왕릉(김해터미널)역']",20150216,2024-03-12,35.224331720828125,128.87417033671804
40064547,미등록 건물명,남구 달동 1276-10,월세,원룸,300,40,10,12.0,없음,2012.09.12,2024-03-07,35.5350987776673,129.330997211635
40064549,미등록 건물명,강남구 삼성동 25-13,월세,빌라,5000,195,15,9.1,"['삼성중앙역', '청담역', '선정릉역']",20220315,2024-03-25,37.514780434505,127.049212167259
40064562,미등록 건물명,용인시 수지구 죽전동 928-23,월세,빌라,500,45,7,17.0,"['오리역', '동천역', '죽전역']",2003.04.15.,2024-03-09,37.3342512776533,127.110216657895
40064571,더위일신세계,영등포구 영등포동3가 17-3,전세,오피스텔,16700,0,10,7.5,"['영등포역', '영등포시장역', '신길역']",2019.,2024-03-13,37.5185509539332,126.907410078009
40064572,더샵광교레이크시티,수원시 영통구 원천동 605,월세,오피스텔,500,145,10,11.9,없음,20220215,2024-07-17,37.2718354,127.060032
40064575,미등록 건물명,마포구 서교동 484-5,월세,빌라,1000,140,0,16.8,"['망원역', '합정역', '홍대입구역']",2004.03.09,2024-03-11,37.5537827420396,126.913555366471
40064589,미등록 건물명,달성군 다사읍 1594-17,월세,원룸,300,30,10,9.0,없음,20161123,2024-03-18,35.8734237720423,128.476250421065
40064591,미등록 건물명,관악구 봉천동 1691-47,월세,빌라,2000,70,5,14.0,"['낙성대역', '남성역', '사당역']",1983.11.25.,2024-03-07,37.4759717896904,126.96833385473
40064595,미등록 건물명,익산시 신동 823-1,월세,원룸,30,370,5,10.0,없음,20100317,2024-07-12,35.9599778531366,126.956089524559
40064600,미등록 건물명,전라북도 전주시 완산구 효자동2가,월세,빌라,1000,66,9,20.0,없음,20221221,2024-03-11,35.8027637890489,127.110274978866
40064612,미등록 건물명,관악구 신림동 535-15,월세,빌라,5000,90,10,17.0,"['신대방역', '구로디지털단지역', '보라매공원역']",20100708,2024-03-12,37.484677256734,126.911122374274
40064617,미등록 건물명,제주시 아라일동 6129-1,월세,원룸,300,48,5,11.0,없음,20151217,2024-03-09,33.4733723408235,126.54913829279
40064620,투웨니퍼스트클래스263,강서구 염창동 263-5,월세,오피스텔,30000,25,5,11.3,"['염창역', '등촌역', '신목동역']",20231128,2024-03-08,37.5492646485093,126.875059829008
40064630,미등록 건물명,성남시 수정구 복정동 699-11,전세,빌라,22000,0,10,16.3,"['가천대역', '남위례역']",20050506,2024-03-26,37.4552734685217,127.129567991252
40064633,미등록 건물명,의정부시 의정부동 240-65,월세,원룸,300,38,7,5.0,"['가능역', '의정부중앙역', '흥선역']",19.09.18,2024-04-08,37.7453804206269,127.044759603931
40064635,미등록 건물명,성북구 삼선동3가 33-1,월세,빌라,5000,80,6,15.0,"['보문역', '성신여대입구역', '한성대입구역']",19911212,2024-03-05,37.5872314097746,127.013770447269
40064645,미등록 건물명,중랑구 중화동 299-25,전세,빌라,21500,0,5,9.0,"['중랑역', '중화역', '상봉역']",2021.4.29,2024-03-05,37.5972464936601,127.07781802265
40064656,미등록 건물명,경기도 김포시 마산동,월세,빌라,3000,50,20,25.0,"['마산역', '구래역']",2017.2.24,2024-03-06,37.6414596700804,126.64133939802
40064672,미등록 건물명,안양시 만안구 안양동 622-78,월세,빌라,2000,145,8,25.6,"['안양역', '명학역']",20230524,2024-03-13,37.3949317990867,126.925697691707
40064673,라큐비,창원시 성산구 중앙동 96-3,월세,오피스텔,500,47,6.5,7.5,없음,2015년01월30일,2024-03-07,35.22316305117936,128.67848023626996
40064675,청라국제도시역푸르지오시티,서구 청라동 4-20,월세,오피스텔,2000,90,12,12.3,['청라국제도시역'],2023.4.14,2024-04-11,37.552242,126.617796
40064681,미등록 건물명,세종시 연기면,전세,원룸,6000,0,4,9.0,없음,20131028,2024-04-30,36.5475487198039,127.280830039644
40064683,미등록 건물명,하남시 감일동 492-1,월세,빌라,5000,110,7,20.0,없음,2021.10.21,2024-03-18,37.5084258756674,127.151500413786
40064684,미등록 건물명,서울시 동대문구 휘경동,전세,원룸,15000,0,8,6.0,"['회기역', '외대앞역']",20230328,2024-06-18,37.5869437989976,127.059433564399
40064685,미등록 건물명,수성구 상동 133-1,월세,빌라,1000,65,10,9.0,"['수성못(TBC)역', '황금역']",20210617,2024-03-08,35.8351130781021,128.609075915349
40064688,미등록 건물명,경기도 시흥시 정왕동,월세,빌라,1000,50,5,14.0,['정왕역'],20030226,2024-03-05,37.3420292933995,126.747089842121
40064695,당산파크뷰,영등포구 당산동3가 398-1,월세,오피스텔,5000,88,9,4.5,"['영등포구청역', '양평역', '문래역']",2022-01-05 ,2024-03-06,37.5257856076804,126.894982230987
40064696,미등록 건물명,서울시 광진구 자양동,월세,빌라,500,60,0,12.0,"['구의역', '강변역', '건대입구역']",19960825,2024-03-14,37.5347406809212,127.081743321172
40064701,미등록 건물명,서초구 서초동 1524-22,월세,빌라,3000,250,0,23.0,"['서초역', '남부터미널역', '교대역']",1989.08.01,2024-08-13,37.486934574404,127.008968254024
40064708,미등록 건물명,수성구 수성동2가 102-1,월세,빌라,500,48,10,11.0,"['수성시장역', '수성구민운동장역', '대구은행역']",20020812,2024-04-01,35.8520326222882,128.616512060922
40064712,미등록 건물명,서구 쌍촌동 958-15,월세,빌라,300,40,5,10.0,"['쌍촌역', '운천(호남대입구)역', '화정역']",20160530,2024-03-12,35.1530145888823,126.865788769084
40064714,제이하임,제주시 이도이동 1169-2,월세,오피스텔,300,61,8,10.9,없음,2018.10.1.,2024-03-08,33.5021812,126.533072
40064719,미등록 건물명,서초구 서초동 1538-4,월세,원룸,2000,150,11,6.7,"['서초역', '남부터미널역', '교대역']",2017.02.22,2024-04-12,37.4875070622406,127.009133971162
40064722,미등록 건물명,강남구 역삼동 796-10,월세,원룸,1000,90,10,8.0,"['역삼역', '매봉역', '양재역']",20040219,2024-07-08,37.4935779552785,127.038873828602
40064738,골든에비뉴,구로구 신도림동 276-32,전세,오피스텔,11500,0,8.4,6.0,"['도림천역', '신도림역', '구로역']",2014.8.22,2024-03-18,37.51334,126.8807
40064740,미등록 건물명,울주군 삼남읍 1627-11,월세,원룸,300,30,5,8.0,없음,2017.03.31,2024-03-17,35.5550447857536,129.117013248136
40064743,미등록 건물명,남동구 논현동 592-29,월세,원룸,300,35,5,7.0,"['인천논현역', '소래포구역']",20110531,2024-03-11,37.4071366744556,126.724510636887
40064744,미등록 건물명,서구 당하동 1020-5,월세,원룸,50,34,6,8.0,없음,20110520,2024-03-08,37.5931649570132,126.691481710993
40064747,미등록 건물명,서구 갈마동 1477,월세,원룸,200,25,1.3,10.0,['탄방역'],20011214,2024-03-11,36.3420742652791,127.372572634127
40064748,운정역센트럴하이뷰,파주시 와동동 1433,전세,오피스텔,15000,0,8,9.1,['운정역'],20210108,2024-03-26,37.7277561,126.761304
40064750,미등록 건물명,청주시 흥덕구 비하동 288-3,월세,원룸,500,46,9,13.0,없음,2017.8.2.,2024-03-07,36.6390859760382,127.423703381865
40064755,미등록 건물명,하남시 감일동 492-1,월세,빌라,3000,120,7,20.0,없음,2021.10.21,2024-03-18,37.5084258756674,127.151500413786
40064760,미등록 건물명,창원시 성산구 신월동 5-17,월세,빌라,3000,40,1,16.0,없음,20100607,2024-03-09,35.2329881129079,128.69191050672
40064762,그랑시티자이1차,안산시 상록구 사동 1639-7,전세,오피스텔,14000,0,9,8.4,없음,20200218,2024-07-17,37.2842779,126.831612
40064767,미등록 건물명,경기도 시흥시 정왕동,월세,원룸,200,30,5,7.9,['정왕역'],20040902,2024-03-07,37.3428314010264,126.748660100349
40064768,미등록 건물명,제주시 아라일동 6069-7,월세,원룸,200,55,3,10.0,없음,2016.3.28,2024-03-27,33.4719590158066,126.542279931996
40064774,미등록 건물명,남구 무거동 1485-4,월세,원룸,300,30,5,10.0,없음,20110914,2024-03-07,35.5491529836808,129.264814402195
40064776,미등록 건물명,성북구 안암동1가 261,월세,빌라,5000,80,2,16.0,"['보문역', '성신여대입구역', '안암역']",19940312,2024-03-28,37.5874762021212,127.021133194951
40064780,미등록 건물명,경기도 김포시 마산동,월세,원룸,300,24,20,8.0,"['마산역', '구래역']",2018년도,2024-09-02,37.6413585923393,126.6419069654314
40064783,미등록 건물명,서구 갈마동 273-32,월세,원룸,200,33,3,11.0,"['갈마역', '월평(한국과학기술원)역', '정부청사역']",20010920,2024-03-14,36.3516819125188,127.371780973983
40064786,미등록 건물명,미추홀구 숭의동 147-63,월세,빌라,150,80,10,20.0,"['도원역', '제물포역', '숭의역']",20170214,2024-03-05,37.4648828592976,126.647436386027
40064788,미등록 건물명,천안시 서북구 두정동 1529-1,월세,원룸,500,41,9,6.0,['두정역'],20180911,2024-03-15,36.834809211335,127.142321492691
40064789,미등록 건물명,경기도 군포시 산본동,전세,빌라,11000,0,0,10.0,"['금정역', '명학역']",1993-12-02,2024-07-22,37.3727917816031,126.928518171695
40064791,미등록 건물명,동구 방어동 1003-5,월세,원룸,200,35,5,9.0,없음,2011.10.25,2024-04-03,35.4809646371034,129.411910766985
40064793,미등록 건물명,창원시 의창구 사림동 86-5,월세,원룸,200,30,1,6.0,없음,2008.04.01,2024-03-08,35.2455599821429,128.678893232003
40064797,미등록 건물명,남동구 만수동 973-12,월세,빌라,70,57,9,10.2,"['만수역', '남동구청역', '모래내시장역']",19891018,2024-03-06,37.4526479058105,126.732400744224
40064800,광교리치안,용인시 수지구 상현동 1132-4,월세,오피스텔,13700,30,14,6.4,['상현역'],2018.2.2,2024-03-05,37.2965888977051,127.070022583008
40064802,디베뉴스타,파주시 야당동 1044-2,월세,오피스텔,500,50,6,5.7,['야당역'],2018.03.02,2024-03-18,37.7078056335449,126.760055541992
40064810,미등록 건물명,평택시 팽성읍 104-11,월세,원룸,300,33,7,6.8,없음,2014.12.31,2024-04-05,36.9635055860104,127.063188710412
40064812,미등록 건물명,춘천시 칠전동 637-2,월세,원룸,300,45,5,9.0,없음,2017.09.19,2024-03-11,37.8399954337675,127.71476290782
40064815,미등록 건물명,시흥시 정왕동 1603-3,월세,원룸,70,30,3,9.0,['정왕역'],2000.6.28,2024-03-15,37.3466327638867,126.742509485767
40064818,미등록 건물명,춘천시 석사동 915-10,월세,원룸,300,30,5,9.0,없음,20070125,2024-03-07,37.8496244901186,127.750848821621
40064829,미등록 건물명,춘천시 칠전동 637-2,월세,원룸,300,45,5,9.0,없음,2017.09.19,2024-03-11,37.83999678164806,127.71476348885447
40064836,미등록 건물명,의정부시 의정부동 240-65,월세,원룸,300,38,7,7.0,"['가능역', '의정부중앙역', '흥선역']",2019년09월18일,2024-08-23,37.7453804206269,127.044759603931
40064839,미등록 건물명,영등포구 양평동4가 171,월세,원룸,500,45,3,3.3,"['선유도역', '당산역', '신목동역']",19900629,2024-03-11,37.5377265536902,126.89608156441
40064843,미등록 건물명,오산시 내삼미동 853-4,월세,빌라,1000,60,8,16.0,['오산대역'],2007.6.21,2024-03-21,37.1752994257429,127.058802401604
40064846,미등록 건물명,청주시 청원구 율량동 726-4,월세,원룸,300,36,9,9.0,없음,2017-11-22,2024-03-06,36.6712234602164,127.490796776838
40064848,미등록 건물명,천안시 서북구 성정동 1383,전세,원룸,5000,0,8,13.0,['두정역'],20120628,2024-03-10,36.8282888024499,127.143294377453
40064850,미등록 건물명,마포구 성산동 250-36,월세,빌라,3000,110,10.5,8.9,"['망원역', '마포구청역', '합정역']",2020-01-22,2024-03-06,37.5588986421843,126.909517244574
40064856,미사강변유림노르웨이숲,하남시 풍산동 527-1,월세,오피스텔,20000,50,15,13.2,"['강일역', '미사역']",20191112,2024-03-11,37.5507628,127.186452
40064857,미등록 건물명,평택시 비전동 1053-11,월세,빌라,500,100,20,12.0,없음,20150721,2024-03-11,37.003241688971,127.112333950373
40064865,미등록 건물명,평택시 팽성읍 175-9,월세,원룸,200,31,9,8.0,없음,2013.01.03,2024-03-17,36.96652690706464,127.06204107596469
40064867,동성로하우스디어반,중구 남일동 29-3,월세,오피스텔,1000,70,8,10.0,"['중앙로역', '반월당(현대백화점)역', '대구역']",20211122,2024-03-07,35.87071006123735,128.59338649048507
40064868,미등록 건물명,관악구 신림동 257-1,월세,원룸,300,36,9,6.0,"['서울대벤처타운역', '관악산(서울대)역', '서원역']",1993-12-08,2024-08-26,37.4685806687486,126.935798322562
40064869,미등록 건물명,오산시 궐동 646-5,월세,원룸,500,40,5,11.0,"['오산역', '오산대역']",2006년 2월 28일,2024-03-15,37.1570667744082,127.062734994768
40064874,이더펠리체,파주시 야당동 1056-3,월세,오피스텔,500,54,6,6.1,['야당역'],2021.01.14,2024-03-05,37.7107212884592,126.759399969685
40064875,미등록 건물명,유성구 노은동 515-15,월세,원룸,300,35,3.5,7.0,"['월드컵경기장(노은도매시장)역', '노은역', '현충원(한밭대)역']",2014.1.27.,2024-03-13,36.3674401198224,127.31478886441
40064879,신진주역세권줌시티,진주시 가좌동 2068-2,월세,오피스텔,500,50,6,6.0,없음,2020.8.19,2024-03-08,35.1542656,128.118662
40064885,미등록 건물명,서울시 성북구 동선동2가,월세,원룸,500,50,5,6.0,"['성신여대입구역', '보문역', '안암역']",20150313,2024-03-05,37.58968278355795,127.01925733800904
40064888,제이하임,제주시 이도이동 1169-2,전세,오피스텔,13000,0,8,10.7,없음,2018.10.1.,2024-03-10,33.5021812,126.533072
40064889,미등록 건물명,대구시 달서구 상인동,월세,빌라,1000,50,0,27.0,"['월촌역', '상인역']",19931203,2024-03-13,35.8164368025935,128.546818716854
40064891,미등록 건물명,이천시 중리동 454-4,월세,원룸,500,43,8,7.0,['이천역'],20180813,2024-04-01,37.2770404371617,127.44233923048
40064896,미등록 건물명,수원시 영통구 매탄동 505-12,월세,원룸,200,40,6.5,7.0,"['영통역', '망포역']",20160718,2024-03-13,37.2548173775036,127.060643804694
40064903,미등록 건물명,오산시 궐동 621-7,월세,원룸,300,27,5,8.0,['오산대역'],2007.01.05,2024-03-05,37.1610763471986,127.057122568958
40064909,미등록 건물명,수원시 영통구 매탄동 505-12,월세,원룸,100,45,6.5,7.0,"['영통역', '망포역']",20161201,2024-03-13,37.2548173775036,127.060643804694
40064915,미등록 건물명,광진구 화양동 75-3,전세,원룸,11000,0,9,5.7,"['어린이대공원역', '건대입구역', '성수역']",20160727,2024-03-14,37.54584165356886,127.07186943487078
40064921,미등록 건물명,평택시 팽성읍 773-6,월세,원룸,200,31,9,8.2,없음,"2009,05.11",2024-04-05,36.96382991581252,127.05670728079753
40064924,미등록 건물명,서울시 마포구 대흥동,월세,원룸,7000,20,0,8.0,"['대흥역', '공덕역', '마포역']",19680915,2024-03-06,37.546647616631,126.943217418889
40064925,이노팰리스,원주시 반곡동 1905-1,전세,오피스텔,8500,0,0,8.0,없음,20160412,2024-03-11,37.3270492553711,127.988357543945
40064930,미등록 건물명,송파구 잠실동 205-24,월세,원룸,13000,30,9.6,5.2,"['잠실새내역', '삼전역', '종합운동장역']",2012.11.19,2024-04-04,37.5088929865437,127.083678481871
40064933,청량리역해링턴플레이스,동대문구 용두동 797,월세,오피스텔,2000,125,18,8.8,"['청량리역', '용두역', '제기동역']",20230130,2024-03-09,37.5781462,127.042435
40064937,디유아르떼,의정부시 신곡동 764-3,월세,오피스텔,100,70,11,7.5,"['경기도청북부청사역', '효자역', '새말역']",2021.1.27,2024-03-27,37.7495373437661,127.071829285635
40064939,송파파크하비오푸르지오,송파구 문정동 618,월세,오피스텔,1000,94,10,8.6,"['장지역', '문정역', '복정역']",20160929,2024-03-08,37.4805571,127.124476
40064940,미등록 건물명,강북구 수유동 167-22,월세,원룸,300,34,6,5.0,"['수유역', '쌍문역', '가오리역']",20180221,2024-03-14,37.6430935864507,127.029177704411
40064952,미등록 건물명,유성구 원신흥동 520-2,월세,원룸,1000,55,5.5,11.0,없음,2022년12월6일,2024-04-05,36.3374669418982,127.348236187766
40064954,광교리치안,용인시 수지구 상현동 1132-4,월세,오피스텔,13700,20,14,6.4,['상현역'],2018.2.2,2024-03-12,37.2965888977051,127.070022583008
40064957,미등록 건물명,인천시 연수구 연수동,월세,원룸,40,26,5,7.0,"['연수역', '신연수역']",19951106,2024-08-17,37.4263832595495,126.680868091492
40064963,태인,안산시 단원구 신길동 1629,월세,오피스텔,1000,85,25,16.1,['안산역'],2017.7.12,2024-04-02,37.3311042785645,126.786186218262
40064969,미등록 건물명,아산시 둔포면 290-72,월세,빌라,300,52,8,15.0,없음,2016.12.21,2024-03-11,36.9153317125931,127.067752568073
40064973,미등록 건물명,동작구 상도동 356-37,월세,빌라,3000,90,9,10.0,"['신대방삼거리역', '장승배기역', '서울지방병무청역']",2018-01-17 ,2024-03-08,37.503351109768,126.932875147296
40064974,미등록 건물명,경기도 시흥시 정왕동,월세,원룸,200,30,8,8.2,"['정왕역', '능길역']",20160112,2024-03-11,37.3438076454215,126.750994518578
40064976,미등록 건물명,시흥시 정왕동 2794-6,월세,원룸,300,28,10,6.0,없음,2018.08.09,2024-03-07,37.3155606085471,126.703957528978
40064978,미등록 건물명,인천시 미추홀구 용현동,월세,원룸,300,35,5,7.0,['인하대역'],1999년 8월13일,2024-03-13,37.44851801693648,126.66186385801012
40064981,미등록 건물명,하남시 감일동 단독2블록,월세,빌라,3000,120,6,18.0,없음,2021.9.20,2024-04-02,37.50850637849208,127.15146675888118
40064984,한라웨스턴파크송도,연수구 송도동 29-1,월세,오피스텔,100,80,9,6.8,"['송도달빛축제공원역', '국제업무지구역']",20210128,2024-07-17,37.40550284523046,126.62914002640947
40064986,그랑시티자이1차,안산시 상록구 사동 1639-7,전세,오피스텔,23000,0,20,16.6,없음,20200218,2024-03-06,37.2842779,126.831612
40064987,미등록 건물명,경상북도 영주시 가흥동,월세,원룸,300,34,4,8.0,없음,2014.11,2024-03-14,36.8118705890663,128.608818189635
40064989,미등록 건물명,고양시 일산서구 탄현동 1600-4,월세,원룸,500,45,4,8.0,"['탄현역', '일산역']",20081103,2024-03-06,37.6934963672727,126.775042231125
40065008,미등록 건물명,강서구 화곡동 333-6,월세,원룸,2000,55,8,6.4,"['까치산역', '화곡역', '신정역']",2021.09.07,2024-03-11,37.5355123976869,126.846939777674
40065009,더예스클라우드,중구 운서동 3092-3,월세,오피스텔,9450,5,6,6.4,['운서역'],20191220,2024-07-17,37.49103454,126.4985227
40065013,미등록 건물명,시흥시 정왕동 2761-1,월세,원룸,200,35,5,7.5,없음,2018.07.10,2024-03-15,37.3190192437018,126.698296546432
40065016,미등록 건물명,경기도 안산시 단원구 신길동,월세,원룸,300,40,0,6.0,['안산역'],2009년 10월 16일,2024-04-05,37.3325710202786,126.788101348689
40065018,미등록 건물명,안산시 상록구 본오동 1140,월세,원룸,500,35,3,7.3,['상록수역'],1995-07-13,2024-04-03,37.3005067101487,126.87393753404
40065024,미등록 건물명,관악구 봉천동 1584-37,월세,원룸,3000,50,10,7.5,"['서울대입구역', '봉천역', '관악산(서울대)역']",2013-08-28 ,2024-04-05,37.4784190297465,126.948408885317
40065026,미등록 건물명,용인시 수지구 동천동 953-5,월세,원룸,1000,50,7,8.0,"['동천역', '수지구청역']",20140222,2024-03-06,37.3345139254775,127.091162142914
40065027,미등록 건물명,음성군 맹동면 340-32,월세,원룸,400,45,5,7.0,없음,2017.09.07,2024-03-15,36.9175010031903,127.53520178943
40065033,미등록 건물명,북구 산격동 1397-42,월세,원룸,200,19,9,10.0,없음,2018-07-26,2024-03-18,35.8934006750267,128.60774818704
40065037,미등록 건물명,광진구 자양동 603-5,전세,빌라,27000,0,7.5,8.9,"['뚝섬유원지역', '구의역', '건대입구역']",20221024,2024-03-09,37.5316493096156,127.07683374552
40065051,미등록 건물명,의정부시 민락동 828-3,월세,빌라,2000,70,4,15.0,"['어룡역', '곤제역']",2019.8.29,2024-04-01,37.7465356736979,127.097760778483
40065054,아스티부산,동구 초량동 1201-1,월세,오피스텔,500,50,7,6.9,"['부산역', '초량역', '부산진역']",2017.12.29,2024-08-16,35.1164627075195,129.041976928711
40065061,미등록 건물명,경기도 시흥시 정왕동,월세,원룸,200,29,9,8.2,['정왕역'],20160112,2024-03-10,37.3472441997227,126.74630400196
40065063,미등록 건물명,남구 삼산동 1549-3,월세,원룸,100,25,9,6.7,['태화강역'],2002.02.14,2024-07-08,35.5427071188231,129.338329460393
40065064,미등록 건물명,청주시 청원구 율량동 2272,월세,원룸,300,36,9,13.5,없음,2018.06.26,2024-03-08,36.6594430419834,127.506939538036
40065065,미등록 건물명,전라북도 전주시 완산구 서신동,월세,빌라,300,30,10,20.0,없음,20050729,2024-03-13,35.8367420691801,127.109735257128
40065072,미등록 건물명,관악구 신림동 489-25,월세,원룸,2000,48,9,6.0,"['신대방역', '신림역', '당곡역']",2024.02.13 ,2024-03-19,37.4841363831053,126.919284773709
40065076,미등록 건물명,서울시 성동구 용답동,월세,빌라,500,40,0,12.0,"['답십리역', '용답역', '신답역']",19900907,2024-03-06,37.5639933042854,127.053804570272
40065080,미등록 건물명,평택시 합정동 924-1,월세,원룸,300,35,9,6.0,['평택역'],2011-05-30,2024-03-15,36.9888869590399,127.101043040412
40065081,미등록 건물명,동구 지저동 830-11,월세,빌라,500,40,9.9,17.0,"['아양교역', '동구청역', '동촌역']",2013.10.10,2024-03-06,35.893663235299016,128.63949188833175
40065085,미등록 건물명,서구 검암동 623-4,월세,빌라,1000,55,2,10.9,"['검바위역', '검암역', '아시아드경기장(공촌사거리)역']",20110707,2024-03-07,37.5631629135411,126.674422245979
40065086,미등록 건물명,남구 삼산동 217-3,월세,원룸,100,45,5,7.0,['태화강역'],2018.2.6,2024-07-25,35.54075430786216,129.3519374171977
40065089,미등록 건물명,성남시 수정구 단대동 48-2,월세,빌라,2000,60,0,15.0,"['산성역', '남한산성입구역', '단대오거리역']",19931014,2024-03-14,37.458305011148,127.158006898808
40065091,미등록 건물명,평택시 신장동 633-26,월세,빌라,500,79,9,20.9,['송탄역'],20140603,2024-03-05,37.0838322481684,127.048558347155
40065092,미등록 건물명,관악구 신림동 489-25,월세,원룸,2000,48,9,6.0,"['신대방역', '신림역', '당곡역']",2024.02.13 ,2024-03-06,37.4841363831053,126.919284773709
40065093,미등록 건물명,수성구 두산동 190,월세,원룸,100,19,9,7.0,"['수성못(TBC)역', '황금역', '지산역']",19990512,2024-03-28,35.8332873543971,128.621550598162
40065098,미등록 건물명,의정부시 의정부동 129-19,월세,원룸,100,35,6,5.5,"['의정부역', '경전철의정부역', '의정부중앙역']",10.08.11,2024-03-11,37.7363299367125,127.050292125007
40065104,미등록 건물명,안산시 단원구 고잔동 739,월세,원룸,500,40,8,7.0,"['중앙역', '고잔역']",20130809,2024-03-31,37.3129942841351,126.836941797421
40065108,미등록 건물명,광주시 목현동 16-52,매매,빌라,2,16.4,없음,20131119,2024-03-15,37.4282692022333,127.2389641063
40065109,미등록 건물명,전라북도 전주시 완산구 중화산동2가,월세,빌라,3000,91,9,40.0,없음,202003,2024-03-14,35.8233372406845,127.1186987689
40065110,미등록 건물명,전라남도 무안군 삼향읍,월세,원룸,200,35,0,8.0,없음,2012.09.13,2024-08-07,34.810997763284,126.473896321928
40065117,미등록 건물명,중랑구 중화동 325-93,월세,빌라,2000,85,6,7.8,"['중랑역', '외대앞역', '신이문역']",20220817,2024-03-06,37.5965100623317,127.071785880252
40065119,허브팰리스서면,부산진구 부전동 38,월세,오피스텔,2000,60,7,8.3,"['부전역', '부전역', '서면역']",20210604,2024-03-11,35.1642898618371,129.061888121305
40065121,미등록 건물명,성남시 중원구 성남동 3855,전세,빌라,15000,0,2,16.6,"['모란역', '수진역', '태평역']",20011120,2024-03-10,37.4306108703465,127.135073942832
40065126,스타타워3차,고양시 일산동구 식사동 1587,월세,오피스텔,2000,63,15,7.8,없음,20200424,2024-04-01,37.6739764,126.807909
40065128,미등록 건물명,경산시 진량읍 441,월세,원룸,100,25,5,6.8,없음,2016.06.24,2024-03-08,35.87210826273972,128.82087249222582
40065129,미등록 건물명,부천시 원미구 심곡동 150-22,월세,빌라,1000,45,0,11.1,"['부천역', '소사역']",2003.8.5,2024-03-07,37.487166260415,126.786332027359
40065130,미등록 건물명,전라남도 무안군 삼향읍,월세,원룸,200,40,0,9.0,없음,20170926,2024-03-06,34.8113822524818,126.471846194645
40065132,미등록 건물명,관악구 신림동 1457-16,월세,원룸,2000,30,9,6.0,"['당곡역', '신림역', '보라매병원역']",20160720,2024-03-05,37.4869444522018,126.923741342954
40065135,미등록 건물명,전라북도 전주시 완산구 효자동2가,월세,빌라,200,31,9,14.0,없음,2010.09.16,2024-03-14,35.8128715531713,127.09961989002
40065140,미등록 건물명,남양주시 오남읍 603-2,월세,빌라,1000,60,2.5,13.0,없음,20161004,2024-03-13,37.68653663698109,127.21024191583108
40065142,시리우스에스,수원시 권선구 권선동 1021-7,월세,오피스텔,5000,70,10,8.9,"['수원시청역', '매탄권선역', '매교역']",20220901,2024-06-03,37.2590778009025,127.029260582057
40065145,미등록 건물명,아산시 음봉면 215-59,월세,빌라,500,52,8,13.0,없음,20230919,2024-03-20,36.8984904166459,127.0644866913
40065147,엔케이리움힐,김포시 구래동 6879-6,월세,오피스텔,200,38,7,6.5,"['구래역', '양촌역']",2019.02.21,2024-03-28,37.6452944575233,126.622945422758
40065148,미등록 건물명,전라남도 무안군 삼향읍,월세,원룸,300,50,0,18.0,없음,20180618,2024-09-05,34.8111367184488,126.471847761291
40065157,미등록 건물명,경산시 진량읍 337-1,월세,원룸,200,37,5,7.5,없음,2015.6.26,2024-03-05,35.87578997716089,128.82361843528994
40065161,더갤러리,부평구 부평동 501-1,월세,오피스텔,300,90,10,22.8,"['부평역', '부개역', '동수역']",20160712,2024-03-10,37.4897308349609,126.731338500977
40065165,젬펠리스,부평구 부평동 160-20,월세,오피스텔,50,40,9.9,5.1,"['부평역', '부평시장역', '동수역']",2012-04-24,2024-05-01,37.4916,126.7274
40065166,미등록 건물명,경기도 안산시 단원구 신길동,월세,원룸,300,42,0,6.0,['안산역'],2012년2월3일,2024-03-18,37.3316686991791,126.787381728757
40065167,더메종건대,광진구 화양동 23-5,월세,오피스텔,3000,85,10,5.4,"['어린이대공원역', '건대입구역', '성수역']",2022-03-18,2024-03-07,37.547494,127.067393
40065177,미등록 건물명,대구시 중구 삼덕동2가,월세,빌라,800,60,10,17.0,"['경대병원역', '반월당(현대백화점)역', '중앙로역']",2007.10.9,2024-05-31,35.8646946761937,128.6013740013
40065178,미등록 건물명,제주시 이도이동 1012-8,월세,원룸,100,39,6,7.0,없음,20050129,2024-03-14,33.4957892294388,126.531177607089
40065187,미등록 건물명,강서구 화곡동 986-24,월세,원룸,2000,50,6,4.6,"['우장산역', '화곡역', '발산역']",2017.10.20,2024-03-13,37.5501931403871,126.847325984014
40065191,미등록 건물명,화성시 향남읍 1272-7,월세,원룸,500,41,9,8.0,없음,20181224,2024-03-13,37.1069562678884,126.903447475017
40065194,미등록 건물명,북구 산격동 1420-4,월세,원룸,200,16,9,10.0,없음,2019-2-27,2024-03-18,35.8910081468846,128.605539642874
40065197,미등록 건물명,중랑구 묵동 247-124,월세,원룸,13000,10,5,8.1,"['먹골역', '중화역', '신이문역']",2016.10.20,2024-04-04,37.6075683180478,127.074624868505
40065199,미등록 건물명,도봉구 창동 623-27,전세,빌라,30000,0,7,14.9,"['쌍문역', '창동역', '녹천역']",2023.8.18,2024-03-18,37.6448303379891,127.037139688578
40065202,미등록 건물명,제주시 이도이동 1012-8,월세,원룸,100,39,6,7.0,없음,20050129,2024-03-14,33.4957892294388,126.531177607089
40065206,미등록 건물명,전라북도 전주시 완산구 서신동,월세,빌라,200,22,10,16.0,없음,20090414,2024-03-07,35.8289826804891,127.112277308267
40065207,미등록 건물명,안산시 단원구 고잔동 744-2,월세,원룸,500,35,3,7.0,"['중앙역', '고잔역', '한대앞역']",20080626,2024-03-31,37.3129384962538,126.838178865185
40065208,미등록 건물명,평택시 용이동 670-6,월세,빌라,1000,80,15,14.8,없음,2018.7.16,2024-03-13,36.9942107235911,127.128630089862
40065213,미등록 건물명,청주시 청원구 오창읍 770-3,월세,원룸,200,31,9,12.0,없음,2011.04.14,2024-03-12,36.7213228714809,127.426033950829
40065219,미등록 건물명,강남구 역삼동 745-18,월세,원룸,1500,130,20,17.0,"['역삼역', '강남역', '언주역']",20010622,2024-03-13,37.4967486401109,127.037061480215
40065228,미등록 건물명,경산시 중방동 856-36,월세,원룸,300,31,9,15.0,"['정평역', '임당역']",20150210,2024-03-31,35.8236764119576,128.73419748276
40065232,미등록 건물명,남동구 만수동 111-33,월세,빌라,80,44,10,8.5,"['만수역', '모래내시장역']",19961004,2024-04-24,37.463555494859,126.727729952059
40065233,미등록 건물명,중랑구 면목동 467-27,전세,원룸,14000,0,2,4.2,"['사가정역', '면목역', '용마산역']",2014.7.15,2024-03-05,37.5813503937434,127.092415173613
40065236,미등록 건물명,송파구 잠실동 247-8,월세,빌라,1000,95,5,11.0,"['삼전역', '잠실새내역', '석촌고분역']",1996-07-24,2024-03-09,37.505931210004015,127.08740256435328
40065239,인천청라골드클래스1차,서구 청라동 96-21,월세,오피스텔,500,60,9,9.0,없음,2021/2/25,2024-04-05,37.5319493,126.631239
40065249,미등록 건물명,창원시 의창구 서상동 659-15,월세,빌라,2000,53,2,12.0,없음,2016-11-16,2024-03-11,35.2609627615168,128.622596782258
40065251,미등록 건물명,경산시 중방동 266-5,월세,원룸,200,25,5,10.0,"['정평역', '임당역']",20101130,2024-03-31,35.8290498869612,128.734450414234
40065254,미등록 건물명,성북구 동선동5가 174-1,전세,빌라,25500,0,1.5,21.3,"['성신여대입구역', '정릉역', '길음역']",2009-10-30,2024-03-10,37.5970566500298,127.017118844771
40065259,미등록 건물명,안산시 단원구 고잔동 752-2,월세,원룸,300,37,3,7.0,"['중앙역', '한대앞역']",20070803,2024-03-31,37.31349960406519,126.840861739626
40065262,미등록 건물명,용인시 기흥구 보라동 390-7,월세,원룸,300,40,5,9.0,['상갈역'],20040628,2024-08-24,37.2576595737471,127.109111624222
40065263,미등록 건물명,강서구 화곡동 46-217,월세,원룸,8400,25,5,9.5,"['화곡역', '우장산역', '까치산역']",1997.4.23,2024-03-08,37.5449893448545,126.847821250386
40065273,미등록 건물명,서울시 동대문구 이문동,월세,빌라,400,40,1,12.1,"['외대앞역', '회기역', '신이문역']",1998-11-28,2024-03-09,37.5941084771924,127.06139217201
40065274,쌍암동미르채리버파크,광산구 쌍암동 694-106,월세,오피스텔,500,50,7,7.2,없음,20210813,2024-03-13,35.2140877,126.851707
40065286,미등록 건물명,경상남도 거제시 고현동,월세,원룸,300,30,5,14.0,없음,20110831,2024-03-08,34.8870624491688,128.620915032804
40065288,마크팰리스범어,수성구 범어동 177-3,월세,오피스텔,500,55,6,8.1,"['범어(누네안과병원)역', '수성구청역', '수성구민운동장역']",2017.10.26,2024-03-14,35.8603668212891,128.627471923828
40065290,미등록 건물명,서구 도안동 1216,월세,빌라,1000,60,3,15.0,없음,20181005,2024-03-08,36.322098570635,127.343134177994
40065292,태건강남헤븐리치더써밋761,강남구 역삼동 605-17,월세,오피스텔,800,95,12,4.5,"['언주역', '신논현역', '역삼역']",20210423,2024-03-11,37.5066978206808,127.03278082363512
40065294,미등록 건물명,천안시 서북구 쌍용동 841-1,월세,빌라,500,40,10,14.0,"['봉명역', '천안역']",20091014,2024-03-25,36.8080858458579,127.130122405709
40065306,미등록 건물명,서울시 강동구 천호동,월세,빌라,15300,24,6.5,9.0,"['굽은다리역', '길동역', '명일역']",20151111,2024-03-06,37.5450854528044,127.137279144471
40065309,미등록 건물명,수성구 두산동 194-16,월세,빌라,300,42,10,13.5,"['수성못(TBC)역', '황금역', '지산역']",20180426,2024-03-13,35.8330724483915,128.622303709584
40065312,미등록 건물명,경기도 평택시 안중읍,전세,원룸,9000,0,10,9.0,없음,20220301,2024-03-19,36.9841226823167,126.936087628656
40065322,미등록 건물명,성남시 수정구 복정동 678-5,월세,원룸,7000,25,7,8.0,"['복정역', '남위례역', '가천대역']",20021011,2024-04-05,37.4608505546402,127.126992604664
40065329,미등록 건물명,서대문구 신촌동 2-97,월세,원룸,1000,75,7,7.0,"['신촌역', '이대역', '독립문역']",2015.10.27,2024-03-12,37.5670845780695,126.947702720846
40065331,에이치씨티,김포시 운양동 1307-5,월세,오피스텔,500,52,10,8.1,['운양역'],20190110,2024-03-06,37.65297495719005,126.68655394288425
40065336,미등록 건물명,수원시 권선구 구운동 472-7,월세,빌라,1500,65,1,14.0,['화서역'],19911203,2024-03-05,37.2805552439893,126.973206874295
40065338,미등록 건물명,오산시 궐동 646-5,월세,원룸,500,40,5,11.0,"['오산역', '오산대역']",2006년 2월 28일,2024-08-12,37.1570667744082,127.062734994768
40065341,미등록 건물명,창원시 의창구 봉곡동 117-10,월세,원룸,300,25,1,8.0,없음,20160913,2024-03-11,35.2493240249404,128.667265186374
40065345,대동레미안센트럴시티,부산진구 범천동 851-3,월세,오피스텔,500,45,6,7.7,"['범내골역', '국제금융센터·부산은행역', '범일역']",20160708,2024-03-08,35.1454925537109,129.0625
40065346,미등록 건물명,청주시 청원구 율량동 1755-7,월세,원룸,200,26,9,9.0,없음,2011 8 5,2024-07-25,36.6647819062374,127.485224108369
40065351,미등록 건물명,성북구 석관동 332-139,월세,빌라,300,25,0,7.3,"['돌곶이역', '신이문역', '상월곡역']",19940601,2024-03-22,37.6061804968125,127.060683746502
40065362,미등록 건물명,송파구 송파동 112-9,월세,원룸,10000,20,8,5.7,"['석촌역', '송파나루역', '송파역']",2006.5.25,2024-03-06,37.5058967003821,127.111006740563
40065363,미등록 건물명,경기도 안산시 상록구 사동,월세,빌라,300,40,5,12.0,['사리역'],19930910,2024-03-08,37.2854741640883,126.852782131244
40065364,미등록 건물명,의왕시 내손동 674-26,전세,빌라,28000,0,4,13.4,없음,20170926,2024-04-05,37.3853459914405,126.983914041947
40065367,미등록 건물명,전라북도 전주시 완산구 중화산동2가,월세,빌라,500,40,10,15.0,없음,2017.02.17,2024-03-13,35.8176852376217,127.118901706583
40065371,미등록 건물명,안산시 단원구 고잔동 739,월세,원룸,500,40,8,7.0,"['중앙역', '고잔역']",20130809,2024-03-31,37.3129942841351,126.836941797421
40065372,미등록 건물명,성북구 석관동 297-17,월세,빌라,3000,40,0,12.7,"['돌곶이역', '석계역', '신이문역']",19970416,2024-03-13,37.6087939867357,127.060704103718
40065374,동성로하우스디어반,중구 남일동 29-3,월세,오피스텔,500,60,0,7.6,"['중앙로역', '반월당(현대백화점)역', '대구역']",2021년도 ,2024-03-06,35.87071006123735,128.59338649048507
40065376,미등록 건물명,수원시 영통구 원천동 336-1,월세,원룸,300,40,7.5,7.0,"['청명역', '영통역']",20120613,2024-03-11,37.2646193452354,127.064938588518
40065378,미등록 건물명,화성시 향남읍 504-8,전세,원룸,4000,0,5,7.0,없음,20131107,2024-04-01,37.1241606832787,126.922243349309
40065381,광진코지웰,광진구 화양동 113-1,월세,오피스텔,1000,100,9,9.0,"['어린이대공원역', '건대입구역', '군자역']",20141103,2024-03-08,37.547067,127.071838
40065383,미등록 건물명,포항시 북구 학산동 267-5,월세,원룸,300,41,9,14.0,없음,20120221,2024-08-15,36.0524430564196,129.372181143954
40065388,미등록 건물명,경기도 안산시 상록구 이동,월세,원룸,200,29,3,7.0,"['한대앞역', '상록수역']",20011017,2024-03-05,37.3102915095528,126.860149315404
40065392,미등록 건물명,경기도 시흥시 정왕동,월세,빌라,1000,50,5,16.0,['정왕역'],20030226,2024-03-05,37.3420292933995,126.747089842121
40065405,미등록 건물명,송파구 석촌동 54-35,월세,원룸,1000,80,7,8.5,"['석촌고분역', '석촌역', '잠실역']",2019-10-16 ,2024-03-12,37.503800000194,127.100190255005
40065410,미등록 건물명,송파구 삼전동 11-3,월세,빌라,32800,30,5,11.4,"['삼전역', '석촌고분역', '잠실새내역']",20160425,2024-03-15,37.5048183280362,127.090579401626
40065416,미등록 건물명,춘천시 후평동 704-13,전세,원룸,8000,0,7,11.5,없음,20160201,2024-03-20,37.8833305838914,127.74729145192
40065417,미등록 건물명,경산시 압량읍 686,월세,원룸,100,19,5,8.0,['영남대역'],2012년 06월 14일,2024-03-15,35.83935632076916,128.76644056216546
40065427,미등록 건물명,영등포구 대림동 662-2,월세,빌라,2000,57,9,10.0,"['신도림역', '신풍역', '대림역']",20161103,2024-03-05,37.5026912165497,126.897907860761
40065431,미등록 건물명,포항시 북구 학산동 267-5,월세,원룸,300,41,9,14.0,없음,20120221,2024-08-15,36.0524430564196,129.372181143954
40065432,미등록 건물명,북구 호계동 725-30,월세,원룸,300,36,9,12.0,없음,20141204,2024-03-28,35.625161553218,129.35388735069
40065434,미등록 건물명,중구 삼덕동3가 340-1,월세,원룸,300,27,8,8.0,"['경대병원역', '대구은행역', '대봉교역']",20100423,2024-07-05,35.8638640029984,128.605586133996
40065437,미등록 건물명,칠곡군 석적읍 252-20,월세,원룸,200,24,8,10.0,없음,2005-08-12,2024-03-08,36.0728035495652,128.411138501184
40065439,미등록 건물명,전라북도 전주시 완산구 중화산동2가,월세,빌라,300,30,10,13.0,없음,2009.11.20,2024-04-01,35.8206985512665,127.121475931759
40065443,미등록 건물명,강동구 천호동 169-47,월세,원룸,1500,70,7,11.5,"['강동역', '길동역', '천호역']",20020418,2024-03-05,37.5380362882288,127.134317384498
40065452,미등록 건물명,부천시 소사구 소사본동 139-10,전세,빌라,4000,0,0,10.0,"['소사역', '소새울역', '부천역']",1982,2024-03-19,37.47796808717663,126.79608704542868
40065454,신당큐브스테이트,중구 황학동 1173,전세,오피스텔,19000,0,10,5.2,"['신당역', '동묘앞역', '상왕십리역']",2022.10.00,2024-03-09,37.5679988046924,127.021981500753
40065458,미등록 건물명,송파구 삼전동 163-11,월세,빌라,2000,95,5,11.5,"['석촌고분역', '삼전역', '석촌역']",20030902,2024-03-05,37.5014427116065,127.094264489941
40065459,미등록 건물명,강남구 역삼동 685-19,월세,원룸,2000,130,10,12.1,"['선정릉역', '선릉역', '언주역']",2001-12-27 ,2024-03-16,37.5079730790252,127.042971726104
40065461,미등록 건물명,영등포구 당산동4가 71,월세,원룸,5000,30,15,6.0,"['영등포구청역', '당산역', '선유도역']",2009-09-23 ,2024-03-05,37.5293527210554,126.897291157245
40065465,미등록 건물명,경기도 수원시 권선구 곡반정동,월세,원룸,100,30,5,6.0,['세류역'],2006.07.28,2024-03-05,37.2383351845227,127.028654364056
40065467,미등록 건물명,서구 도안동 1023,월세,빌라,3000,70,3,16.0,없음,20201209,2024-03-19,36.3257865609652,127.345511361837
40065469,레지던스에코세븐,제주시 노형동 923-9,월세,오피스텔,300,70,8,9.9,없음,2017-07-20,2024-07-19,33.4836367241498,126.482636106622
40065474,미등록 건물명,성남시 수정구 복정동 679-11,월세,원룸,1000,55,5,7.0,"['남위례역', '복정역', '가천대역']",20011106,2024-03-22,37.4609603139426,127.127730089719
40065475,미등록 건물명,경상남도 거제시 고현동,월세,원룸,100,25,5,10.0,없음,2013년08월,2024-04-02,34.8842301232966,128.622554920426
40065477,미등록 건물명,수원시 권선구 권선동 1341-6,월세,빌라,3000,90,9,13.0,['세류역'],미등기건물 ,2024-03-07,37.2425582724174,127.018324290193
40065484,미등록 건물명,성북구 종암동 31-44,월세,원룸,500,40,6,5.0,"['고려대역', '안암역', '월곡역']",20070216,2024-08-22,37.5922836684192,127.034369678942
40065486,미등록 건물명,군산시 나운동 795-19,월세,빌라,500,54,4,19.0,없음,2014-6-25,2024-03-11,35.965292088683164,126.69398463454154
40065491,미등록 건물명,포항시 남구 해도동 416-16,월세,원룸,500,36,9,15.0,없음,2010.7,2024-03-11,36.024445719566,129.36882039779
40065494,미등록 건물명,칠곡군 석적읍 169-5,월세,원룸,100,11,7,9.0,없음,20080418,2024-04-04,36.0773035866049,128.402747485913
40065504,미등록 건물명,창원시 의창구 소답동 135-1,월세,빌라,10000,5,5,24.0,없음,19910608,2024-03-18,35.2636619881208,128.626899742451
40065509,미등록 건물명,종로구 명륜3가 5,월세,원룸,1000,55,0,3.6,"['혜화역', '한성대입구역']",20110329,2024-03-13,37.5872417002674,126.996135298026
40065514,미등록 건물명,부천시 소사구 소사본동 139-10,월세,빌라,500,25,0,10.0,"['소사역', '소새울역', '부천역']",19820914,2024-03-10,37.4779664653624,126.796087049837
40065516,미등록 건물명,수원시 장안구 율전동 222-24,월세,원룸,500,44,9.9,6.2,['성균관대역'],2016.11.11,2024-03-11,37.3021779794827,126.971230972308
40065523,미등록 건물명,서울시 성동구 사근동,월세,원룸,500,50,5,5.0,"['용답역', '한양대역', '마장역']",2000,2024-03-06,37.5598141290068,127.047932505359
40065530,미등록 건물명,칠곡군 석적읍 626-2,월세,빌라,500,38,7,21.0,없음,2014.09.25,2024-03-05,36.0768977283199,128.400026155248
40065533,미등록 건물명,서구 마전동 1161-8,월세,원룸,300,28,10,11.0,"['검단사거리역', '마전역']",20170707,2024-03-18,37.6088181226912,126.662780297092
40065540,모노팰리스,아산시 온천동 74-5,월세,오피스텔,500,46,4,12.0,['온양온천역'],20140327,2024-08-07,36.78029251098633,127.01065826416016
40065543,미등록 건물명,연수구 연수동 501-1,월세,빌라,60,51,9,14.0,"['연수역', '신연수역']",19951113,2024-03-12,37.4265693250678,126.681638945675
40065544,미등록 건물명,송파구 삼전동 11-3,월세,빌라,32800,30,5,11.4,"['삼전역', '석촌고분역', '잠실새내역']",20160425,2024-03-15,37.5048183280362,127.090579401626
40065545,미등록 건물명,강남구 논현동 229-9,월세,원룸,120,120,15,9.5,"['언주역', '학동역', '선정릉역']",2004-04-01 ,2024-03-07,37.5094280032383,127.034818112827
40065552,미등록 건물명,구미시 진평동 1046-7,월세,원룸,200,21,7,13.0,없음,2007.11.13,2024-05-01,36.0899262387149,128.430500565667
40065554,미등록 건물명,화성시 향남읍 501-11,월세,원룸,500,31,0,5.0,없음,20120426,2024-03-18,37.1238511680812,126.921559498325
40065558,미등록 건물명,서대문구 연희동 340-17,월세,원룸,3000,50,7,8.0,"['신촌역', '신촌역', '홍대입구역']",2012.03.13,2024-03-05,37.5632695006828,126.932455609692
40065559,미등록 건물명,송파구 송파동 131-26,월세,빌라,25000,15,8.5,11.3,"['송파나루역', '석촌역', '송파역']",2018.10.30,2024-03-16,37.5074240479193,127.11350920764
40065563,학산리젠다빌-2차A동,천안시 서북구 성정동 1523,전세,오피스텔,8000,0,6,12.0,['두정역'],20130912,2024-07-15,36.82783,127.138
40065566,미등록 건물명,수원시 팔달구 인계동 1000-9,월세,빌라,1000,67,12,8.4,"['매교역', '수원시청역']",20161129,2024-03-06,37.266139414046,127.023338205311
40065568,미등록 건물명,거제시 고현동 458-4,월세,원룸,100,20,5,10.0,없음,2008.12.1.,2024-03-18,34.880600999532,128.62349688392
40065569,미등록 건물명,아산시 배미동 150-25,월세,원룸,300,31,9,10.0,없음,20190618,2024-03-23,36.7883111414148,126.961957060149
40065576,미등록 건물명,평택시 고덕동 2509-2,월세,빌라,500,50,30,7.4,없음,20220527,2024-03-18,37.0402301392675,127.030079776841
